city,state_id,lat,lng,timezone,city_state
New York,NY,40.6943,-73.9249,America/New_York,"New York, NY"
Los Angeles,CA,34.1141,-118.4068,America/Los_Angeles,"Los Angeles, CA"
Chicago,IL,41.8375,-87.6866,America/Chicago,"Chicago, IL"
Miami,FL,25.7840,-80.2101,America/New_York,"Miami, FL"
Dallas,TX,32.7935,-96.7667,America/Chicago,"Dallas, TX"
Houston,TX,29.7860,-95.3885,America/Chicago,"Houston, TX"
Philadelphia,PA,40.0077,-75.1339,America/New_York,"Philadelphia, PA"
Atlanta,GA,33.7628,-84.422,America/New_York,"Atlanta, GA"
Washington,DC,38.9047,-77.0163,America/New_York,"Washington, DC"
Boston,MA,42.3188,-71.0852,America/New_York,"Boston, MA"
Phoenix,AZ,33.5722,-112.0892,America/Phoenix,"Phoenix, AZ"
Detroit,MI,42.3834,-83.1024,America/Detroit,"Detroit, MI"
San Francisco,CA,37.7558,-122.4449,America/Los_Angeles,"San Francisco, CA"
Seattle,WA,47.6211,-122.3244,America/Los_Angeles,"Seattle, WA"
San Diego,CA,32.8313,-117.1222,America/Los_Angeles,"San Diego, CA"
Minneapolis,MN,44.9635,-93.2678,America/Chicago,"Minneapolis, MN"
Tampa,FL,27.9945,-82.4447,America/New_York,"Tampa, FL"
Brooklyn,NY,40.6501,-73.9496,America/New_York,"Brooklyn, NY"
Denver,CO,39.7620,-104.8758,America/Denver,"Denver, CO"
Queens,NY,40.7498,-73.7976,America/New_York,"Queens, NY"
Baltimore,MD,39.3051,-76.6144,America/New_York,"Baltimore, MD"
Las Vegas,NV,36.2333,-115.2654,America/Los_Angeles,"Las Vegas, NV"
St. Louis,MO,38.6359,-90.2451,America/Chicago,"St. Louis, MO"
Riverside,CA,33.9381,-117.3949,America/Los_Angeles,"Riverside, CA"
Portland,OR,45.5371,-122.65,America/Los_Angeles,"Portland, OR"
San Antonio,TX,29.4632,-98.5238,America/Chicago,"San Antonio, TX"
Sacramento,CA,38.5677,-121.4685,America/Los_Angeles,"Sacramento, CA"
San Juan,PR,18.3985,-66.061,America/Puerto_Rico,"San Juan, PR"
San Jose,CA,37.3012,-121.848,America/Los_Angeles,"San Jose, CA"
Orlando,FL,28.4773,-81.337,America/New_York,"Orlando, FL"
Cleveland,OH,41.4764,-81.6805,America/New_York,"Cleveland, OH"
Pittsburgh,PA,40.4397,-79.9763,America/New_York,"Pittsburgh, PA"
Manhattan,NY,40.7834,-73.9662,America/New_York,"Manhattan, NY"
Austin,TX,30.3005,-97.7522,America/Chicago,"Austin, TX"
Cincinnati,OH,39.1413,-84.506,America/New_York,"Cincinnati, OH"
Indianapolis,IN,39.7771,-86.1458,America/Indiana/Indianapolis,"Indianapolis, IN"
Kansas City,MO,39.1238,-94.5541,America/Chicago,"Kansas City, MO"
Columbus,OH,39.9862,-82.9855,America/New_York,"Columbus, OH"
Charlotte,NC,35.2083,-80.8303,America/New_York,"Charlotte, NC"
Virginia Beach,VA,36.7335,-76.0435,America/New_York,"Virginia Beach, VA"
Bronx,NY,40.8501,-73.8662,America/New_York,"Bronx, NY"
Milwaukee,WI,43.0642,-87.9675,America/Chicago,"Milwaukee, WI"
Providence,RI,41.8230,-71.4187,America/New_York,"Providence, RI"
Jacksonville,FL,30.3322,-81.6749,America/New_York,"Jacksonville, FL"
Salt Lake City,UT,40.7776,-111.9311,America/Denver,"Salt Lake City, UT"
Nashville,TN,36.1715,-86.7842,America/Chicago,"Nashville, TN"
Raleigh,NC,35.8324,-78.6429,America/New_York,"Raleigh, NC"
Memphis,TN,35.1087,-89.9663,America/Chicago,"Memphis, TN"
Richmond,VA,37.5295,-77.4756,America/New_York,"Richmond, VA"
Louisville,KY,38.1663,-85.6485,America/New_York,"Louisville, KY"
New Orleans,LA,30.0687,-89.9288,America/Chicago,"New Orleans, LA"
Bridgeport,CT,41.1918,-73.1954,America/New_York,"Bridgeport, CT"
Oklahoma City,OK,35.4676,-97.5136,America/Chicago,"Oklahoma City, OK"
Buffalo,NY,42.9018,-78.8487,America/New_York,"Buffalo, NY"
Hartford,CT,41.7661,-72.6834,America/New_York,"Hartford, CT"
Fort Worth,TX,32.7817,-97.3474,America/Chicago,"Fort Worth, TX"
Tucson,AZ,32.1541,-110.8787,America/Phoenix,"Tucson, AZ"
Honolulu,HI,21.3294,-157.846,Pacific/Honolulu,"Honolulu, HI"
McAllen,TX,26.2252,-98.2467,America/Chicago,"McAllen, TX"
El Paso,TX,31.8476,-106.43,America/Denver,"El Paso, TX"
Omaha,NE,41.2627,-96.0529,America/Chicago,"Omaha, NE"
Albuquerque,NM,35.1054,-106.6465,America/Denver,"Albuquerque, NM"
Birmingham,AL,33.5279,-86.7971,America/Chicago,"Birmingham, AL"
Sarasota,FL,27.3387,-82.5432,America/New_York,"Sarasota, FL"
Dayton,OH,39.7805,-84.2003,America/New_York,"Dayton, OH"
Rochester,NY,43.1680,-77.6162,America/New_York,"Rochester, NY"
Fresno,CA,36.7830,-119.7939,America/Los_Angeles,"Fresno, CA"
Tulsa,OK,36.1283,-95.9042,America/Chicago,"Tulsa, OK"
Allentown,PA,40.5961,-75.4756,America/New_York,"Allentown, PA"
Concord,CA,37.9722,-122.0016,America/Los_Angeles,"Concord, CA"
Cape Coral,FL,26.6443,-81.9957,America/New_York,"Cape Coral, FL"
Charleston,SC,32.8168,-79.9687,America/New_York,"Charleston, SC"
Colorado Springs,CO,38.8674,-104.7605,America/Denver,"Colorado Springs, CO"
Springfield,MA,42.1155,-72.5395,America/New_York,"Springfield, MA"
Grand Rapids,MI,42.9619,-85.6562,America/Detroit,"Grand Rapids, MI"
Ogden,UT,41.2279,-111.9682,America/Denver,"Ogden, UT"
Columbia,SC,34.0378,-80.9036,America/New_York,"Columbia, SC"
Baton Rouge,LA,30.4420,-91.1311,America/Chicago,"Baton Rouge, LA"
Knoxville,TN,35.9692,-83.9496,America/New_York,"Knoxville, TN"
Mission Viejo,CA,33.6096,-117.6551,America/Los_Angeles,"Mission Viejo, CA"
Albany,NY,42.6664,-73.7987,America/New_York,"Albany, NY"
Akron,OH,41.0798,-81.5219,America/New_York,"Akron, OH"
New Haven,CT,41.3113,-72.9246,America/New_York,"New Haven, CT"
Provo,UT,40.2457,-111.6457,America/Denver,"Provo, UT"
Bakersfield,CA,35.3529,-119.0359,America/Los_Angeles,"Bakersfield, CA"
Murrieta,CA,33.5719,-117.1909,America/Los_Angeles,"Murrieta, CA"
Des Moines,IA,41.5725,-93.6105,America/Chicago,"Des Moines, IA"
Worcester,MA,42.2705,-71.8079,America/New_York,"Worcester, MA"
Mesa,AZ,33.4015,-111.7178,America/Phoenix,"Mesa, AZ"
Toledo,OH,41.6638,-83.5827,America/New_York,"Toledo, OH"
Palm Bay,FL,27.9631,-80.6593,America/New_York,"Palm Bay, FL"
Staten Island,NY,40.5834,-74.1496,America/New_York,"Staten Island, NY"
Wichita,KS,37.6895,-97.3443,America/Chicago,"Wichita, KS"
Harrisburg,PA,40.2752,-76.8843,America/New_York,"Harrisburg, PA"
Long Beach,CA,33.7977,-118.167,America/Los_Angeles,"Long Beach, CA"
Little Rock,AR,34.7256,-92.3577,America/Chicago,"Little Rock, AR"
Madison,WI,43.0822,-89.393,America/Chicago,"Madison, WI"
Greenville,SC,34.8354,-82.3646,America/New_York,"Greenville, SC"
Reno,NV,39.5497,-119.8483,America/Los_Angeles,"Reno, NV"
Port St. Lucie,FL,27.2796,-80.3884,America/New_York,"Port St. Lucie, FL"
Lancaster,PA,40.0420,-76.3012,America/New_York,"Lancaster, PA"
Spokane,WA,47.6671,-117.433,America/Los_Angeles,"Spokane, WA"
Denton,TX,33.2175,-97.1418,America/Chicago,"Denton, TX"
Poughkeepsie,NY,41.6950,-73.9211,America/New_York,"Poughkeepsie, NY"
Oakland,CA,37.7904,-122.2166,America/Los_Angeles,"Oakland, CA"
Winston-Salem,NC,36.1029,-80.261,America/New_York,"Winston-Salem, NC"
Syracuse,NY,43.0407,-76.1437,America/New_York,"Syracuse, NY"
Boise,ID,43.6005,-116.2308,America/Boise,"Boise, ID"
Chattanooga,TN,35.0660,-85.2481,America/New_York,"Chattanooga, TN"
Augusta,GA,33.3645,-82.0708,America/New_York,"Augusta, GA"
Arlington,TX,32.6998,-97.125,America/Chicago,"Arlington, TX"
Stockton,CA,37.9765,-121.3109,America/Los_Angeles,"Stockton, CA"
Durham,NC,35.9792,-78.9022,America/New_York,"Durham, NC"
Palm Coast,FL,29.5389,-81.2457,America/New_York,"Palm Coast, FL"
Scranton,PA,41.4044,-75.6649,America/New_York,"Scranton, PA"
Aurora,CO,39.7083,-104.7237,America/Denver,"Aurora, CO"
Oxnard,CA,34.1964,-119.1815,America/Los_Angeles,"Oxnard, CA"
Modesto,CA,37.6375,-121.0028,America/Los_Angeles,"Modesto, CA"
Indio,CA,33.7346,-116.2346,America/Los_Angeles,"Indio, CA"
Kissimmee,FL,28.3041,-81.4169,America/New_York,"Kissimmee, FL"
Youngstown,OH,41.0993,-80.6463,America/New_York,"Youngstown, OH"
Pensacola,FL,30.4413,-87.1911,America/Chicago,"Pensacola, FL"
Lancaster,CA,34.6935,-118.1753,America/Los_Angeles,"Lancaster, CA"
Anaheim,CA,33.8390,-117.8574,America/Los_Angeles,"Anaheim, CA"
Fayetteville,AR,36.0714,-94.1661,America/Chicago,"Fayetteville, AR"
Jackson,MS,32.3157,-90.2125,America/Chicago,"Jackson, MS"
Victorville,CA,34.5277,-117.3536,America/Los_Angeles,"Victorville, CA"
Bonita Springs,FL,26.3558,-81.7859,America/New_York,"Bonita Springs, FL"
Greensboro,NC,36.0956,-79.8271,America/New_York,"Greensboro, NC"
Corpus Christi,TX,27.7254,-97.3767,America/Chicago,"Corpus Christi, TX"
Flint,MI,43.0236,-83.6921,America/Detroit,"Flint, MI"
Fayetteville,NC,35.0850,-78.9772,America/New_York,"Fayetteville, NC"
Santa Ana,CA,33.7367,-117.8819,America/Los_Angeles,"Santa Ana, CA"
Fort Wayne,IN,41.0888,-85.1436,America/Indiana/Indianapolis,"Fort Wayne, IN"
Mobile,AL,30.6782,-88.1162,America/Chicago,"Mobile, AL"
Lansing,MI,42.7142,-84.5601,America/Detroit,"Lansing, MI"
Ann Arbor,MI,42.2759,-83.731,America/Detroit,"Ann Arbor, MI"
Huntsville,AL,34.6981,-86.6412,America/Chicago,"Huntsville, AL"
Lexington,KY,38.0423,-84.4587,America/New_York,"Lexington, KY"
Santa Rosa,CA,38.4458,-122.7067,America/Los_Angeles,"Santa Rosa, CA"
Antioch,CA,37.9787,-121.796,America/Los_Angeles,"Antioch, CA"
Asheville,NC,35.5707,-82.5537,America/New_York,"Asheville, NC"
Henderson,NV,36.0133,-115.0381,America/Los_Angeles,"Henderson, NV"
St. Paul,MN,44.9478,-93.1039,America/Chicago,"St. Paul, MN"
Fort Collins,CO,40.5477,-105.0656,America/Denver,"Fort Collins, CO"
Lakeland,FL,28.0557,-81.9545,America/New_York,"Lakeland, FL"
Springfield,MO,37.1943,-93.2916,America/Chicago,"Springfield, MO"
The Woodlands,TX,30.1738,-95.5134,America/Chicago,"The Woodlands, TX"
Shreveport,LA,32.4653,-93.7955,America/Chicago,"Shreveport, LA"
Trenton,NJ,40.2237,-74.7641,America/New_York,"Trenton, NJ"
Plano,TX,33.0502,-96.7486,America/Chicago,"Plano, TX"
Round Lake Beach,IL,42.3791,-88.0811,America/Chicago,"Round Lake Beach, IL"
South Bend,IN,41.6767,-86.2696,America/Indiana/Indianapolis,"South Bend, IN"
Savannah,GA,32.0286,-81.1821,America/New_York,"Savannah, GA"
Newark,NJ,40.7245,-74.1725,America/New_York,"Newark, NJ"
Davenport,IA,41.5565,-90.6053,America/Chicago,"Davenport, IA"
Myrtle Beach,SC,33.7094,-78.8844,America/New_York,"Myrtle Beach, SC"
Lincoln,NE,40.8099,-96.6784,America/Chicago,"Lincoln, NE"
Rockford,IL,42.2596,-89.064,America/Chicago,"Rockford, IL"
Reading,PA,40.3400,-75.9267,America/New_York,"Reading, PA"
Canton,OH,40.8078,-81.3676,America/New_York,"Canton, OH"
Irvine,CA,33.6772,-117.7738,America/Los_Angeles,"Irvine, CA"
Eugene,OR,44.0564,-123.1174,America/Los_Angeles,"Eugene, OR"
Chula Vista,CA,32.6281,-117.0144,America/Los_Angeles,"Chula Vista, CA"
St. Petersburg,FL,27.7931,-82.6652,America/New_York,"St. Petersburg, FL"
Salem,OR,44.9233,-123.0244,America/Los_Angeles,"Salem, OR"
Lafayette,LA,30.2082,-92.0325,America/Chicago,"Lafayette, LA"
Laredo,TX,27.5625,-99.4874,America/Chicago,"Laredo, TX"
Jersey City,NJ,40.7184,-74.0686,America/New_York,"Jersey City, NJ"
Santa Clarita,CA,34.4175,-118.4964,America/Los_Angeles,"Santa Clarita, CA"
Aguadilla,PR,18.4382,-67.1537,America/Puerto_Rico,"Aguadilla, PR"
Wilmington,NC,34.2099,-77.8866,America/New_York,"Wilmington, NC"
Lubbock,TX,33.5657,-101.8879,America/Chicago,"Lubbock, TX"
Chandler,AZ,33.2825,-111.8514,America/Phoenix,"Chandler, AZ"
Scottsdale,AZ,33.6872,-111.8651,America/Phoenix,"Scottsdale, AZ"
Tallahassee,FL,30.4551,-84.2527,America/New_York,"Tallahassee, FL"
Montgomery,AL,32.3482,-86.2668,America/Chicago,"Montgomery, AL"
Peoria,IL,40.7520,-89.6154,America/Chicago,"Peoria, IL"
Glendale,AZ,33.5791,-112.2311,America/Phoenix,"Glendale, AZ"
Columbus,GA,32.5100,-84.8771,America/New_York,"Columbus, GA"
Anchorage,AK,61.1508,-149.1091,America/Anchorage,"Anchorage, AK"
Gilbert,AZ,33.3100,-111.7463,America/Phoenix,"Gilbert, AZ"
North Las Vegas,NV,36.2883,-115.0888,America/Los_Angeles,"North Las Vegas, NV"
Avondale,AZ,33.3873,-112.3235,America/Phoenix,"Avondale, AZ"
McKinney,TX,33.2016,-96.667,America/Chicago,"McKinney, TX"
Norfolk,VA,36.8945,-76.259,America/New_York,"Norfolk, VA"
Chesapeake,VA,36.6778,-76.3023,America/New_York,"Chesapeake, VA"
Kennewick,WA,46.1978,-119.1732,America/Los_Angeles,"Kennewick, WA"
Winter Haven,FL,28.0118,-81.7014,America/New_York,"Winter Haven, FL"
Irving,TX,32.8583,-96.9702,America/Chicago,"Irving, TX"
Garland,TX,32.9100,-96.6304,America/Chicago,"Garland, TX"
York,PA,39.9651,-76.7315,America/New_York,"York, PA"
Concord,NC,35.3933,-80.6369,America/New_York,"Concord, NC"
Arlington,VA,38.8786,-77.1011,America/New_York,"Arlington, VA"
Atlantic City,NJ,39.3797,-74.4527,America/New_York,"Atlantic City, NJ"
Visalia,CA,36.3276,-119.3269,America/Los_Angeles,"Visalia, CA"
Fremont,CA,37.5265,-121.9843,America/Los_Angeles,"Fremont, CA"
Hialeah,FL,25.8696,-80.3045,America/New_York,"Hialeah, FL"
Nashua,NH,42.7491,-71.491,America/New_York,"Nashua, NH"
Killeen,TX,31.0753,-97.7297,America/Chicago,"Killeen, TX"
Gulfport,MS,30.4274,-89.0704,America/Chicago,"Gulfport, MS"
Brownsville,TX,25.9975,-97.458,America/Matamoros,"Brownsville, TX"
Evansville,IN,37.9881,-87.5341,America/Chicago,"Evansville, IN"
Appleton,WI,44.2780,-88.3892,America/Chicago,"Appleton, WI"
Navarre,FL,30.4174,-86.8907,America/Chicago,"Navarre, FL"
Bel Air South,MD,39.5022,-76.3113,America/New_York,"Bel Air South, MD"
Kalamazoo,MI,42.2749,-85.5882,America/Detroit,"Kalamazoo, MI"
Bremerton,WA,47.5436,-122.7121,America/Los_Angeles,"Bremerton, WA"
Spring Valley,NV,36.0952,-115.2636,America/Los_Angeles,"Spring Valley, NV"
San Bernardino,CA,34.1416,-117.2943,America/Los_Angeles,"San Bernardino, CA"
Roanoke,VA,37.2785,-79.9581,America/New_York,"Roanoke, VA"
Spartanburg,SC,34.9442,-81.9251,America/New_York,"Spartanburg, SC"
Tacoma,WA,47.2431,-122.4531,America/Los_Angeles,"Tacoma, WA"
Enterprise,NV,36.0091,-115.2278,America/Los_Angeles,"Enterprise, NV"
Green Bay,WI,44.5148,-87.9895,America/Chicago,"Green Bay, WI"
Portland,ME,43.6773,-70.2715,America/New_York,"Portland, ME"
Thousand Oaks,CA,34.1914,-118.8756,America/Los_Angeles,"Thousand Oaks, CA"
Fontana,CA,34.0968,-117.4599,America/Los_Angeles,"Fontana, CA"
Hickory,NC,35.7410,-81.3223,America/New_York,"Hickory, NC"
Moreno Valley,CA,33.9244,-117.2045,America/Los_Angeles,"Moreno Valley, CA"
Deltona,FL,28.9050,-81.2137,America/New_York,"Deltona, FL"
Fargo,ND,46.8651,-96.8292,America/Chicago,"Fargo, ND"
Santa Barbara,CA,34.4285,-119.7202,America/Los_Angeles,"Santa Barbara, CA"
College Station,TX,30.5852,-96.2959,America/Chicago,"College Station, TX"
Gainesville,FL,29.6804,-82.3459,America/New_York,"Gainesville, FL"
Amarillo,TX,35.1984,-101.8316,America/Chicago,"Amarillo, TX"
Norwich,CT,41.5495,-72.0882,America/New_York,"Norwich, CT"
Olympia,WA,47.0417,-122.8959,America/Los_Angeles,"Olympia, WA"
Yonkers,NY,40.9466,-73.8673,America/New_York,"Yonkers, NY"
Huntington Beach,CA,33.6960,-118.0018,America/Los_Angeles,"Huntington Beach, CA"
Glendale,CA,34.1819,-118.2468,America/Los_Angeles,"Glendale, CA"
Aurora,IL,41.7638,-88.2902,America/Chicago,"Aurora, IL"
Huntington,WV,38.4109,-82.4345,America/New_York,"Huntington, WV"
Sunrise Manor,NV,36.1783,-115.0487,America/Los_Angeles,"Sunrise Manor, NV"
North Port,FL,27.0576,-82.1977,America/New_York,"North Port, FL"
Hagerstown,MD,39.6401,-77.7217,America/New_York,"Hagerstown, MD"
Grand Prairie,TX,32.6871,-97.0208,America/Chicago,"Grand Prairie, TX"
Overland Park,KS,38.8870,-94.687,America/Chicago,"Overland Park, KS"
Paradise,NV,36.0872,-115.1355,America/Los_Angeles,"Paradise, NV"
Tempe,AZ,33.3881,-111.9319,America/Phoenix,"Tempe, AZ"
Salinas,CA,36.6883,-121.6317,America/Los_Angeles,"Salinas, CA"
Erie,PA,42.1167,-80.0733,America/New_York,"Erie, PA"
Cedar Rapids,IA,41.9662,-91.6783,America/Chicago,"Cedar Rapids, IA"
Waterbury,CT,41.5582,-73.0361,America/New_York,"Waterbury, CT"
Frisco,TX,33.1560,-96.8216,America/Chicago,"Frisco, TX"
Waco,TX,31.5599,-97.1882,America/Chicago,"Waco, TX"
Gastonia,NC,35.2494,-81.1854,America/New_York,"Gastonia, NC"
Clarksville,TN,36.5692,-87.3413,America/Chicago,"Clarksville, TN"
Vancouver,WA,45.6366,-122.5967,America/Los_Angeles,"Vancouver, WA"
Lorain,OH,41.4409,-82.184,America/New_York,"Lorain, OH"
Nampa,ID,43.5844,-116.5638,America/Boise,"Nampa, ID"
Fort Lauderdale,FL,26.1412,-80.1464,America/New_York,"Fort Lauderdale, FL"
Hemet,CA,33.7341,-116.9969,America/Los_Angeles,"Hemet, CA"
Newport News,VA,37.1051,-76.5185,America/New_York,"Newport News, VA"
Ontario,CA,34.0393,-117.6064,America/Los_Angeles,"Ontario, CA"
Rancho Cucamonga,CA,34.1247,-117.5667,America/Los_Angeles,"Rancho Cucamonga, CA"
Vallejo,CA,38.1125,-122.2342,America/Los_Angeles,"Vallejo, CA"
Oceanside,CA,33.2247,-117.3083,America/Los_Angeles,"Oceanside, CA"
Vero Beach South,FL,27.6132,-80.4163,America/New_York,"Vero Beach South, FL"
Ocala,FL,29.1780,-82.1511,America/New_York,"Ocala, FL"
Sioux Falls,SD,43.5396,-96.7311,America/Chicago,"Sioux Falls, SD"
Danbury,CT,41.4015,-73.4709,America/New_York,"Danbury, CT"
Elk Grove,CA,38.4161,-121.3842,America/Los_Angeles,"Elk Grove, CA"
High Point,NC,35.9910,-79.9937,America/New_York,"High Point, NC"
Garden Grove,CA,33.7787,-117.9601,America/Los_Angeles,"Garden Grove, CA"
Peoria,AZ,33.7843,-112.2989,America/Phoenix,"Peoria, AZ"
Pembroke Pines,FL,26.0128,-80.3382,America/New_York,"Pembroke Pines, FL"
Medford,OR,42.3372,-122.854,America/Los_Angeles,"Medford, OR"
Murfreesboro,TN,35.8490,-86.4121,America/Chicago,"Murfreesboro, TN"
Cary,NC,35.7819,-78.8195,America/New_York,"Cary, NC"
Lafayette,IN,40.3991,-86.8593,America/Indiana/Indianapolis,"Lafayette, IN"
Corona,CA,33.8616,-117.5649,America/Los_Angeles,"Corona, CA"
Santa Cruz,CA,36.9789,-122.0346,America/Los_Angeles,"Santa Cruz, CA"
Spring Hill,FL,28.4798,-82.53,America/New_York,"Spring Hill, FL"
Muskegon,MI,43.2281,-86.2562,America/Detroit,"Muskegon, MI"
Manchester,NH,42.9848,-71.4447,America/New_York,"Manchester, NH"
Marysville,WA,48.0809,-122.1561,America/Los_Angeles,"Marysville, WA"
Springfield,IL,39.7709,-89.654,America/Chicago,"Springfield, IL"
Frederick,MD,39.4337,-77.4141,America/New_York,"Frederick, MD"
Hayward,CA,37.6328,-122.0766,America/Los_Angeles,"Hayward, CA"
Alexandria,VA,38.8185,-77.0861,America/New_York,"Alexandria, VA"
Bayamón,PR,18.3794,-66.1635,America/Puerto_Rico,"Bayamón, PR"
Port Arthur,TX,29.8554,-93.9264,America/Chicago,"Port Arthur, TX"
Lakewood,CO,39.6977,-105.1172,America/Denver,"Lakewood, CO"
Fredericksburg,VA,38.2992,-77.4872,America/New_York,"Fredericksburg, VA"
Leesburg,FL,28.7672,-81.8962,America/New_York,"Leesburg, FL"
Hollywood,FL,26.0293,-80.1679,America/New_York,"Hollywood, FL"
Palmdale,CA,34.5944,-118.1057,America/Los_Angeles,"Palmdale, CA"
Macon,GA,32.8065,-83.6974,America/New_York,"Macon, GA"
Kansas City,KS,39.1235,-94.7443,America/Chicago,"Kansas City, KS"
Champaign,IL,40.1142,-88.2737,America/Chicago,"Champaign, IL"
Sunnyvale,CA,37.3836,-122.0255,America/Los_Angeles,"Sunnyvale, CA"
Pasadena,TX,29.6575,-95.1498,America/Chicago,"Pasadena, TX"
Pomona,CA,34.0585,-117.7626,America/Los_Angeles,"Pomona, CA"
Escondido,CA,33.1348,-117.0723,America/Los_Angeles,"Escondido, CA"
Mauldin,SC,34.7821,-82.3032,America/New_York,"Mauldin, SC"
New Bedford,MA,41.6697,-70.9428,America/New_York,"New Bedford, MA"
Panama City,FL,30.1995,-85.6003,America/Chicago,"Panama City, FL"
Tuscaloosa,AL,33.2348,-87.5268,America/Chicago,"Tuscaloosa, AL"
Warner Robins,GA,32.5961,-83.6527,America/New_York,"Warner Robins, GA"
Naperville,IL,41.7480,-88.1659,America/Chicago,"Naperville, IL"
Merced,CA,37.3057,-120.4779,America/Los_Angeles,"Merced, CA"
Elkhart,IN,41.6916,-85.9627,America/Indiana/Indianapolis,"Elkhart, IN"
Joliet,IL,41.5188,-88.1499,America/Chicago,"Joliet, IL"
Binghamton,NY,42.1014,-75.9093,America/New_York,"Binghamton, NY"
Houma,LA,29.5800,-90.7059,America/Chicago,"Houma, LA"
Bellevue,WA,47.5951,-122.1535,America/Los_Angeles,"Bellevue, WA"
Topeka,KS,39.0346,-95.6955,America/Chicago,"Topeka, KS"
Paterson,NJ,40.9147,-74.1624,America/New_York,"Paterson, NJ"
Lake Charles,LA,30.2010,-93.2111,America/Chicago,"Lake Charles, LA"
Torrance,CA,33.8346,-118.3416,America/Los_Angeles,"Torrance, CA"
Thornton,CO,39.9197,-104.9438,America/Denver,"Thornton, CO"
Tyler,TX,32.3184,-95.3062,America/Chicago,"Tyler, TX"
Athens,GA,33.9508,-83.3689,America/New_York,"Athens, GA"
Beaumont,TX,30.0849,-94.1451,America/Chicago,"Beaumont, TX"
Pueblo,CO,38.2701,-104.6114,America/Denver,"Pueblo, CO"
Odessa,TX,31.8801,-102.3448,America/Chicago,"Odessa, TX"
Mesquite,TX,32.7602,-96.5865,America/Chicago,"Mesquite, TX"
Fairfield,CA,38.2583,-122.0335,America/Los_Angeles,"Fairfield, CA"
Pasadena,CA,34.1597,-118.139,America/Los_Angeles,"Pasadena, CA"
Charleston,WV,38.3484,-81.6322,America/New_York,"Charleston, WV"
Fullerton,CA,33.8841,-117.9279,America/Los_Angeles,"Fullerton, CA"
Miramar,FL,25.9773,-80.3351,America/New_York,"Miramar, FL"
Midland,TX,32.0243,-102.1147,America/Chicago,"Midland, TX"
Gainesville,GA,34.2902,-83.8294,America/New_York,"Gainesville, GA"
Orange,CA,33.8038,-117.8218,America/Los_Angeles,"Orange, CA"
Olathe,KS,38.8833,-94.82,America/Chicago,"Olathe, KS"
Santa Maria,CA,34.9333,-120.4431,America/Los_Angeles,"Santa Maria, CA"
Surprise,AZ,33.6815,-112.4515,America/Phoenix,"Surprise, AZ"
Roseville,CA,38.7703,-121.3196,America/Los_Angeles,"Roseville, CA"
Metairie,LA,29.9977,-90.178,America/Chicago,"Metairie, LA"
Yuma,AZ,32.5995,-114.5491,America/Phoenix,"Yuma, AZ"
Carrollton,TX,32.9890,-96.8999,America/Chicago,"Carrollton, TX"
Burlington,NC,36.0760,-79.4685,America/New_York,"Burlington, NC"
West Valley City,UT,40.6886,-112.0123,America/Denver,"West Valley City, UT"
Hampton,VA,37.0551,-76.363,America/New_York,"Hampton, VA"
Racine,WI,42.7274,-87.8135,America/Chicago,"Racine, WI"
Greeley,CO,40.4152,-104.7706,America/Denver,"Greeley, CO"
Harlingen,TX,26.1916,-97.6977,America/Chicago,"Harlingen, TX"
Carolina,PR,18.4054,-65.9792,America/Puerto_Rico,"Carolina, PR"
Warren,MI,42.4934,-83.027,America/Detroit,"Warren, MI"
Grand Junction,CO,39.0877,-108.5673,America/Denver,"Grand Junction, CO"
Coral Springs,FL,26.2702,-80.2591,America/New_York,"Coral Springs, FL"
Columbia,MO,38.9472,-92.3268,America/Chicago,"Columbia, MO"
Bloomington,IL,40.4757,-88.9703,America/Chicago,"Bloomington, IL"
Sterling Heights,MI,42.5809,-83.0305,America/Detroit,"Sterling Heights, MI"
Stamford,CT,41.1039,-73.5585,America/New_York,"Stamford, CT"
Kent,WA,47.3887,-122.2128,America/Los_Angeles,"Kent, WA"
Bellingham,WA,48.7548,-122.469,America/Los_Angeles,"Bellingham, WA"
Las Cruces,NM,32.3265,-106.7893,America/Denver,"Las Cruces, NM"
Greenville,NC,35.5943,-77.376,America/New_York,"Greenville, NC"
Round Rock,TX,30.5270,-97.6642,America/Chicago,"Round Rock, TX"
Elizabeth,NJ,40.6658,-74.1913,America/New_York,"Elizabeth, NJ"
South Lyon,MI,42.4614,-83.6526,America/Detroit,"South Lyon, MI"
Simi Valley,CA,34.2663,-118.749,America/Los_Angeles,"Simi Valley, CA"
Santa Clara,CA,37.3646,-121.968,America/Los_Angeles,"Santa Clara, CA"
Yakima,WA,46.5923,-120.5496,America/Los_Angeles,"Yakima, WA"
Johnson City,TN,36.3406,-82.3806,America/New_York,"Johnson City, TN"
Dover,DE,39.1610,-75.5202,America/New_York,"Dover, DE"
Pearland,TX,29.5581,-95.3218,America/Chicago,"Pearland, TX"
Lynchburg,VA,37.4003,-79.1909,America/New_York,"Lynchburg, VA"
Fort Smith,AR,35.3495,-94.3695,America/Chicago,"Fort Smith, AR"
Yuba City,CA,39.1357,-121.6383,America/Los_Angeles,"Yuba City, CA"
Lehigh Acres,FL,26.6120,-81.6388,America/New_York,"Lehigh Acres, FL"
Kenosha,WI,42.5865,-87.8773,America/Chicago,"Kenosha, WI"
Arecibo,PR,18.4491,-66.7387,America/Puerto_Rico,"Arecibo, PR"
Berkeley,CA,37.8722,-122.276,America/Los_Angeles,"Berkeley, CA"
Boulder,CO,40.0248,-105.2524,America/Denver,"Boulder, CO"
Texas City,TX,29.4154,-94.9682,America/Chicago,"Texas City, TX"
Iowa City,IA,41.6559,-91.5303,America/Chicago,"Iowa City, IA"
Waldorf,MD,38.6085,-76.9194,America/New_York,"Waldorf, MD"
East Los Angeles,CA,34.0326,-118.1691,America/Los_Angeles,"East Los Angeles, CA"
Redding,CA,40.5698,-122.365,America/Los_Angeles,"Redding, CA"
Arvada,CO,39.8320,-105.151,America/Denver,"Arvada, CO"
The Villages,FL,28.9034,-81.9887,America/New_York,"The Villages, FL"
Saginaw,MI,43.4199,-83.9501,America/Detroit,"Saginaw, MI"
Ponce,PR,18.0127,-66.6212,America/Puerto_Rico,"Ponce, PR"
Richardson,TX,32.9716,-96.7093,America/Chicago,"Richardson, TX"
Sugar Land,TX,29.5935,-95.6358,America/Chicago,"Sugar Land, TX"
Leominster,MA,42.5209,-71.7717,America/New_York,"Leominster, MA"
St. Cloud,MN,45.5340,-94.1718,America/Chicago,"St. Cloud, MN"
Duluth,MN,46.7756,-92.1393,America/Chicago,"Duluth, MN"
Cambridge,MA,42.3759,-71.1185,America/New_York,"Cambridge, MA"
Monroe,LA,32.5185,-92.0774,America/Chicago,"Monroe, LA"
Independence,MO,39.0871,-94.3501,America/Chicago,"Independence, MO"
Rochester,MN,44.0154,-92.478,America/Chicago,"Rochester, MN"
Rock Hill,SC,34.9415,-81.0241,America/New_York,"Rock Hill, SC"
Bloomington,IN,39.1637,-86.5257,America/Indiana/Indianapolis,"Bloomington, IN"
Billings,MT,45.7891,-108.5526,America/Denver,"Billings, MT"
Seaside,CA,36.6224,-121.8199,America/Los_Angeles,"Seaside, CA"
Clearwater,FL,27.9790,-82.7623,America/New_York,"Clearwater, FL"
Brandon,FL,27.9367,-82.3,America/New_York,"Brandon, FL"
Burlington,VT,44.4876,-73.2316,America/New_York,"Burlington, VT"
Pottstown,PA,40.2508,-75.6445,America/New_York,"Pottstown, PA"
Waterloo,IA,42.4918,-92.3522,America/Chicago,"Waterloo, IA"
West Jordan,UT,40.6024,-112.0008,America/Denver,"West Jordan, UT"
Coeur d'Alene,ID,47.7040,-116.7936,America/Los_Angeles,"Coeur d'Alene, ID"
Westminster,CO,39.8837,-105.0624,America/Denver,"Westminster, CO"
St. George,UT,37.0758,-113.5752,America/Denver,"St. George, UT"
Gilroy,CA,37.0046,-121.5854,America/Los_Angeles,"Gilroy, CA"
Carlsbad,CA,33.1246,-117.2834,America/Los_Angeles,"Carlsbad, CA"
El Monte,CA,34.0739,-118.0291,America/Los_Angeles,"El Monte, CA"
North Charleston,SC,32.9067,-80.0722,America/New_York,"North Charleston, SC"
Chico,CA,39.7578,-121.8161,America/Los_Angeles,"Chico, CA"
Temecula,CA,33.4928,-117.1315,America/Los_Angeles,"Temecula, CA"
Costa Mesa,CA,33.6667,-117.9135,America/Los_Angeles,"Costa Mesa, CA"
Utica,NY,43.0962,-75.2261,America/New_York,"Utica, NY"
Clovis,CA,36.8278,-119.683,America/Los_Angeles,"Clovis, CA"
Norman,OK,35.2335,-97.3471,America/Chicago,"Norman, OK"
Elgin,IL,42.0383,-88.324,America/Chicago,"Elgin, IL"
Centennial,CO,39.5926,-104.8673,America/Denver,"Centennial, CO"
Lowell,MA,42.6389,-71.3217,America/New_York,"Lowell, MA"
Downey,CA,33.9379,-118.1311,America/Los_Angeles,"Downey, CA"
Pompano Beach,FL,26.2428,-80.1312,America/New_York,"Pompano Beach, FL"
West Palm Beach,FL,26.7469,-80.132,America/New_York,"West Palm Beach, FL"
Abilene,TX,32.4543,-99.7384,America/Chicago,"Abilene, TX"
Everett,WA,47.9525,-122.1669,America/Los_Angeles,"Everett, WA"
Miami Gardens,FL,25.9433,-80.2426,America/New_York,"Miami Gardens, FL"
Gresham,OR,45.5021,-122.4413,America/Los_Angeles,"Gresham, OR"
El Centro,CA,32.7865,-115.5595,America/Los_Angeles,"El Centro, CA"
Richmond,CA,37.9477,-122.3389,America/Los_Angeles,"Richmond, CA"
Inglewood,CA,33.9566,-118.3444,America/Los_Angeles,"Inglewood, CA"
Salisbury,MD,38.3756,-75.5865,America/New_York,"Salisbury, MD"
Broken Arrow,OK,36.0380,-95.7806,America/Chicago,"Broken Arrow, OK"
San Buenaventura,CA,34.2741,-119.2314,America/Los_Angeles,"San Buenaventura, CA"
Sandy Springs,GA,33.9366,-84.3703,America/New_York,"Sandy Springs, GA"
Hillsboro,OR,45.5273,-122.936,America/Los_Angeles,"Hillsboro, OR"
Sioux City,IA,42.4959,-96.3901,America/Chicago,"Sioux City, IA"
Jacksonville,NC,34.7289,-77.3941,America/New_York,"Jacksonville, NC"
Meridian,ID,43.6116,-116.3977,America/Boise,"Meridian, ID"
Lewisville,TX,33.0454,-96.9815,America/Chicago,"Lewisville, TX"
Bend,OR,44.0563,-121.3095,America/Los_Angeles,"Bend, OR"
Daly City,CA,37.6862,-122.4685,America/Los_Angeles,"Daly City, CA"
Highlands Ranch,CO,39.5419,-104.9708,America/Denver,"Highlands Ranch, CO"
Jurupa Valley,CA,34.0010,-117.4706,America/Los_Angeles,"Jurupa Valley, CA"
Temple,TX,31.1068,-97.3891,America/Chicago,"Temple, TX"
Logan,UT,41.7399,-111.8422,America/Denver,"Logan, UT"
Kailua,HI,21.3920,-157.7396,Pacific/Honolulu,"Kailua, HI"
West Covina,CA,34.0555,-117.9113,America/Los_Angeles,"West Covina, CA"
Davie,FL,26.0789,-80.287,America/New_York,"Davie, FL"
Columbia,MD,39.2004,-76.859,America/New_York,"Columbia, MD"
League City,TX,29.4874,-95.1087,America/Chicago,"League City, TX"
Mandeville,LA,30.3751,-90.0904,America/Chicago,"Mandeville, LA"
San Tan Valley,AZ,33.1786,-111.5629,America/Phoenix,"San Tan Valley, AZ"
Turlock,CA,37.5053,-120.8588,America/Los_Angeles,"Turlock, CA"
Norwalk,CA,33.9069,-118.0829,America/Los_Angeles,"Norwalk, CA"
Allen,TX,33.1088,-96.6735,America/Chicago,"Allen, TX"
San Germán,PR,18.0827,-67.046,America/Puerto_Rico,"San Germán, PR"
San Mateo,CA,37.5522,-122.3121,America/Los_Angeles,"San Mateo, CA"
Rialto,CA,34.1175,-117.3892,America/Los_Angeles,"Rialto, CA"
Burbank,CA,34.1879,-118.3235,America/Los_Angeles,"Burbank, CA"
El Cajon,CA,32.8017,-116.9604,America/Los_Angeles,"El Cajon, CA"
Eau Claire,WI,44.8197,-91.4948,America/Chicago,"Eau Claire, WI"
Sparks,NV,39.5736,-119.7161,America/Los_Angeles,"Sparks, NV"
Charlottesville,VA,38.0375,-78.4855,America/New_York,"Charlottesville, VA"
Renton,WA,47.4784,-122.1918,America/Los_Angeles,"Renton, WA"
Idaho Falls,ID,43.4871,-112.0362,America/Boise,"Idaho Falls, ID"
Vista,CA,33.1896,-117.2386,America/Los_Angeles,"Vista, CA"
Holland,MI,42.7677,-86.0984,America/Detroit,"Holland, MI"
Longmont,CO,40.1686,-105.1005,America/Denver,"Longmont, CO"
Wichita Falls,TX,33.9072,-98.5291,America/Chicago,"Wichita Falls, TX"
Lafayette,CO,39.9946,-105.0998,America/Denver,"Lafayette, CO"
Vacaville,CA,38.3587,-121.9673,America/Los_Angeles,"Vacaville, CA"
Spokane Valley,WA,47.6626,-117.2346,America/Los_Angeles,"Spokane Valley, WA"
La Crosse,WI,43.8241,-91.2268,America/Chicago,"La Crosse, WI"
Carmel,IN,39.9650,-86.146,America/Indiana/Indianapolis,"Carmel, IN"
Boca Raton,FL,26.3752,-80.108,America/New_York,"Boca Raton, FL"
Longview,TX,32.5193,-94.7622,America/Chicago,"Longview, TX"
Kingsport,TN,36.5224,-82.5454,America/New_York,"Kingsport, TN"
South Fulton,GA,33.6273,-84.58,America/New_York,"South Fulton, GA"
Beaverton,OR,45.4779,-122.8168,America/Los_Angeles,"Beaverton, OR"
Rio Rancho,NM,35.2873,-106.6982,America/Denver,"Rio Rancho, NM"
Prescott Valley,AZ,34.5980,-112.3185,America/Phoenix,"Prescott Valley, AZ"
Orem,UT,40.2981,-111.6994,America/Denver,"Orem, UT"
Edinburg,TX,26.3196,-98.1597,America/Chicago,"Edinburg, TX"
San Angelo,TX,31.4424,-100.4504,America/Chicago,"San Angelo, TX"
Portsmouth,NH,43.0580,-70.7826,America/New_York,"Portsmouth, NH"
Tracy,CA,37.7269,-121.4523,America/Los_Angeles,"Tracy, CA"
Federal Way,WA,47.3091,-122.3358,America/Los_Angeles,"Federal Way, WA"
Lawrence,KS,38.9597,-95.2642,America/Chicago,"Lawrence, KS"
Manteca,CA,37.7927,-121.2264,America/Los_Angeles,"Manteca, CA"
San Marcos,CA,33.1350,-117.1743,America/Los_Angeles,"San Marcos, CA"
Sandy,UT,40.5709,-111.8506,America/Denver,"Sandy, UT"
Riverview,FL,27.8227,-82.3023,America/New_York,"Riverview, FL"
Compton,CA,33.8930,-118.2274,America/Los_Angeles,"Compton, CA"
Brockton,MA,42.0821,-71.0242,America/New_York,"Brockton, MA"
Santa Fe,NM,35.6619,-105.9819,America/Denver,"Santa Fe, NM"
Hanford,CA,36.3274,-119.6549,America/Los_Angeles,"Hanford, CA"
Middletown,OH,39.5033,-84.3659,America/New_York,"Middletown, OH"
Hesperia,CA,34.3975,-117.3147,America/Los_Angeles,"Hesperia, CA"
Portsmouth,VA,36.8468,-76.354,America/New_York,"Portsmouth, VA"
South Gate,CA,33.9447,-118.1926,America/Los_Angeles,"South Gate, CA"
Roswell,GA,34.0391,-84.3513,America/New_York,"Roswell, GA"
Sunrise,FL,26.1547,-80.2997,America/New_York,"Sunrise, FL"
Bowling Green,KY,36.9716,-86.4378,America/Chicago,"Bowling Green, KY"
Lee's Summit,MO,38.9171,-94.3816,America/Chicago,"Lee's Summit, MO"
Slidell,LA,30.2887,-89.7828,America/Chicago,"Slidell, LA"
Blacksburg,VA,37.2300,-80.4279,America/New_York,"Blacksburg, VA"
Quincy,MA,42.2506,-71.0187,America/New_York,"Quincy, MA"
Plantation,FL,26.1259,-80.2617,America/New_York,"Plantation, FL"
Dearborn,MI,42.3127,-83.213,America/Detroit,"Dearborn, MI"
Lynn,MA,42.4781,-70.9664,America/New_York,"Lynn, MA"
Livonia,MI,42.3972,-83.3733,America/Detroit,"Livonia, MI"
Missoula,MT,46.8751,-114.0214,America/Denver,"Missoula, MT"
Arden-Arcade,CA,38.6017,-121.3845,America/Los_Angeles,"Arden-Arcade, CA"
Fishers,IN,39.9588,-85.9659,America/Indiana/Indianapolis,"Fishers, IN"
Mayagüez,PR,18.2003,-67.1397,America/Puerto_Rico,"Mayagüez, PR"
Terre Haute,IN,39.4660,-87.3751,America/Indiana/Indianapolis,"Terre Haute, IN"
Edmond,OK,35.6689,-97.416,America/Chicago,"Edmond, OK"
Menifee,CA,33.6909,-117.1849,America/Los_Angeles,"Menifee, CA"
Vineland,NJ,39.4653,-74.9981,America/New_York,"Vineland, NJ"
Santa Monica,CA,34.0235,-118.481,America/Los_Angeles,"Santa Monica, CA"
Alafaya,FL,28.5280,-81.1868,America/New_York,"Alafaya, FL"
Suffolk,VA,36.6953,-76.6398,America/New_York,"Suffolk, VA"
Carson,CA,33.8374,-118.2559,America/Los_Angeles,"Carson, CA"
Kirkland,WA,47.6970,-122.2057,America/Los_Angeles,"Kirkland, WA"
Westminster,CA,33.7523,-117.9938,America/Los_Angeles,"Westminster, CA"
San Leandro,CA,37.7074,-122.1599,America/Los_Angeles,"San Leandro, CA"
Lawton,OK,34.6175,-98.4202,America/Chicago,"Lawton, OK"
Bismarck,ND,46.8143,-100.7694,America/Chicago,"Bismarck, ND"
Dover,NH,43.1887,-70.8845,America/New_York,"Dover, NH"
Town 'n' Country,FL,28.0106,-82.5763,America/New_York,"Town 'n' Country, FL"
Fall River,MA,41.7136,-71.1015,America/New_York,"Fall River, MA"
Rapid City,SD,44.0716,-103.2204,America/Denver,"Rapid City, SD"
Germantown,MD,39.1755,-77.2643,America/New_York,"Germantown, MD"
Miami Beach,FL,25.8171,-80.1396,America/New_York,"Miami Beach, FL"
Mount Pleasant,SC,32.8537,-79.8203,America/New_York,"Mount Pleasant, SC"
Albany,GA,31.5776,-84.1762,America/New_York,"Albany, GA"
Chino,CA,33.9836,-117.6654,America/Los_Angeles,"Chino, CA"
Norwalk,CT,41.1144,-73.4215,America/New_York,"Norwalk, CT"
Florence,SC,34.1780,-79.7898,America/New_York,"Florence, SC"
State College,PA,40.7909,-77.8567,America/New_York,"State College, PA"
Livermore,CA,37.6868,-121.7607,America/Los_Angeles,"Livermore, CA"
Conroe,TX,30.3238,-95.4824,America/Chicago,"Conroe, TX"
Newton,MA,42.3316,-71.2085,America/New_York,"Newton, MA"
O'Fallon,MO,38.7850,-90.7175,America/Chicago,"O'Fallon, MO"
Dalton,GA,34.7690,-84.972,America/New_York,"Dalton, GA"
Citrus Heights,CA,38.6948,-121.288,America/Los_Angeles,"Citrus Heights, CA"
Jackson,MI,42.2431,-84.4038,America/Detroit,"Jackson, MI"
Waukegan,IL,42.3698,-87.8716,America/Chicago,"Waukegan, IL"
Muncie,IN,40.1989,-85.395,America/Indiana/Indianapolis,"Muncie, IN"
Newport Beach,CA,33.6151,-117.8668,America/Los_Angeles,"Newport Beach, CA"
Decatur,IL,39.8557,-88.9342,America/Chicago,"Decatur, IL"
Homosassa Springs,FL,28.8119,-82.5392,America/New_York,"Homosassa Springs, FL"
Port Huron,MI,42.9821,-82.4388,America/Detroit,"Port Huron, MI"
Anderson,IN,40.0891,-85.6892,America/Indiana/Indianapolis,"Anderson, IN"
Bryan,TX,30.6650,-96.3807,America/Chicago,"Bryan, TX"
Hawthorne,CA,33.9147,-118.3476,America/Los_Angeles,"Hawthorne, CA"
Hoover,AL,33.3763,-86.8068,America/Chicago,"Hoover, AL"
Napa,CA,38.2975,-122.301,America/Los_Angeles,"Napa, CA"
Bloomington,MN,44.8306,-93.3151,America/Chicago,"Bloomington, MN"
Clifton,NJ,40.8630,-74.1575,America/New_York,"Clifton, NJ"
Springfield,OH,39.9300,-83.7959,America/New_York,"Springfield, OH"
Hattiesburg,MS,31.3074,-89.317,America/Chicago,"Hattiesburg, MS"
Whittier,CA,33.9678,-118.0188,America/Los_Angeles,"Whittier, CA"
Largo,FL,27.9088,-82.7712,America/New_York,"Largo, FL"
Lake Forest,CA,33.6605,-117.6714,America/Los_Angeles,"Lake Forest, CA"
New Braunfels,TX,29.6994,-98.1148,America/Chicago,"New Braunfels, TX"
Johns Creek,GA,34.0333,-84.2027,America/New_York,"Johns Creek, GA"
Redwood City,CA,37.5025,-122.2253,America/Los_Angeles,"Redwood City, CA"
Alhambra,CA,34.0840,-118.1355,America/Los_Angeles,"Alhambra, CA"
Troy,MI,42.5817,-83.1457,America/Detroit,"Troy, MI"
Mission,TX,26.2039,-98.3256,America/Chicago,"Mission, TX"
Alton,IL,38.9037,-90.152,America/Chicago,"Alton, IL"
Goodyear,AZ,33.2614,-112.3622,America/Phoenix,"Goodyear, AZ"
Fort Myers,FL,26.6194,-81.8302,America/New_York,"Fort Myers, FL"
Williamsburg,VA,37.2693,-76.7076,America/New_York,"Williamsburg, VA"
Chino Hills,CA,33.9508,-117.7254,America/Los_Angeles,"Chino Hills, CA"
Melbourne,FL,28.1086,-80.6627,America/New_York,"Melbourne, FL"
Buena Park,CA,33.8572,-118.0046,America/Los_Angeles,"Buena Park, CA"
Kankakee,IL,41.1020,-87.8643,America/Chicago,"Kankakee, IL"
Atascocita,TX,29.9777,-95.1953,America/Chicago,"Atascocita, TX"
Loveland,CO,40.4166,-105.0623,America/Denver,"Loveland, CO"
Westland,MI,42.3192,-83.3805,America/Detroit,"Westland, MI"
Cicero,IL,41.8445,-87.7593,America/Chicago,"Cicero, IL"
Pine Hills,FL,28.5818,-81.4692,America/New_York,"Pine Hills, FL"
San Ramon,CA,37.7624,-121.9365,America/Los_Angeles,"San Ramon, CA"
Cranston,RI,41.7658,-71.4858,America/New_York,"Cranston, RI"
Somerville,MA,42.3908,-71.1014,America/New_York,"Somerville, MA"
Silver Spring,MD,39.0028,-77.0207,America/New_York,"Silver Spring, MD"
Warwick,RI,41.7062,-71.4334,America/New_York,"Warwick, RI"
Joplin,MO,37.0757,-94.5018,America/Chicago,"Joplin, MO"
Farmington Hills,MI,42.4860,-83.3771,America/Detroit,"Farmington Hills, MI"
Auburn,WA,47.3039,-122.2108,America/Los_Angeles,"Auburn, WA"
Deerfield Beach,FL,26.3050,-80.1277,America/New_York,"Deerfield Beach, FL"
Tustin,CA,33.7311,-117.8107,America/Los_Angeles,"Tustin, CA"
Franklin,TN,35.9200,-86.8516,America/Chicago,"Franklin, TN"
Anderson,SC,34.5211,-82.6478,America/New_York,"Anderson, SC"
Lebanon,PA,40.3412,-76.4228,America/New_York,"Lebanon, PA"
Springdale,AR,36.1901,-94.1574,America/Chicago,"Springdale, AR"
Yauco,PR,18.0344,-66.8615,America/Puerto_Rico,"Yauco, PR"
Madera,CA,36.9630,-120.0778,America/Los_Angeles,"Madera, CA"
Brooklyn Park,MN,45.1112,-93.3505,America/Chicago,"Brooklyn Park, MN"
Mountain View,CA,37.4001,-122.0796,America/Los_Angeles,"Mountain View, CA"
Lawrence,MA,42.7002,-71.1626,America/New_York,"Lawrence, MA"
Pleasanton,CA,37.6663,-121.8805,America/Los_Angeles,"Pleasanton, CA"
Alameda,CA,37.7668,-122.267,America/Los_Angeles,"Alameda, CA"
Zephyrhills,FL,28.2409,-82.1797,America/New_York,"Zephyrhills, FL"
Lakewood,CA,33.8471,-118.1222,America/Los_Angeles,"Lakewood, CA"
Flagstaff,AZ,35.1872,-111.6194,America/Phoenix,"Flagstaff, AZ"
Florence,AL,34.8303,-87.6655,America/Chicago,"Florence, AL"
Folsom,CA,38.6668,-121.1422,America/Los_Angeles,"Folsom, CA"
New Rochelle,NY,40.9304,-73.7836,America/New_York,"New Rochelle, NY"
St. Joseph,MO,39.7598,-94.821,America/Chicago,"St. Joseph, MO"
Texarkana,TX,33.4500,-94.0847,America/Chicago,"Texarkana, TX"
Plymouth,MN,45.0225,-93.4617,America/Chicago,"Plymouth, MN"
Flower Mound,TX,33.0343,-97.1146,America/Chicago,"Flower Mound, TX"
Valdosta,GA,30.8502,-83.2788,America/New_York,"Valdosta, GA"
Pharr,TX,26.1685,-98.1904,America/Chicago,"Pharr, TX"
Parma,OH,41.3843,-81.7286,America/New_York,"Parma, OH"
Newark,OH,40.0706,-82.425,America/New_York,"Newark, OH"
Elizabethtown,KY,37.7031,-85.8773,America/New_York,"Elizabethtown, KY"
Davis,CA,38.5553,-121.737,America/Los_Angeles,"Davis, CA"
St. Augustine,FL,29.8976,-81.31,America/New_York,"St. Augustine, FL"
Boynton Beach,FL,26.5281,-80.0811,America/New_York,"Boynton Beach, FL"
Perris,CA,33.7898,-117.2233,America/Los_Angeles,"Perris, CA"
Anniston,AL,33.6712,-85.8135,America/Chicago,"Anniston, AL"
Sumter,SC,33.9392,-80.393,America/New_York,"Sumter, SC"
Upland,CA,34.1178,-117.6604,America/Los_Angeles,"Upland, CA"
Layton,UT,41.0770,-111.962,America/Denver,"Layton, UT"
Kendall,FL,25.6697,-80.3556,America/New_York,"Kendall, FL"
Morgantown,WV,39.6383,-79.9464,America/New_York,"Morgantown, WV"
Cedar Park,TX,30.5105,-97.8197,America/Chicago,"Cedar Park, TX"
Auburn,AL,32.6087,-85.4903,America/Chicago,"Auburn, AL"
Camarillo,CA,34.2230,-119.0321,America/Los_Angeles,"Camarillo, CA"
Cheyenne,WY,41.1350,-104.7902,America/Denver,"Cheyenne, WY"
Bellflower,CA,33.8880,-118.1271,America/Los_Angeles,"Bellflower, CA"
Watsonville,CA,36.9206,-121.7708,America/Los_Angeles,"Watsonville, CA"
Hammond,IN,41.6168,-87.4909,America/Chicago,"Hammond, IN"
Baytown,TX,29.7587,-94.9671,America/Chicago,"Baytown, TX"
Wausau,WI,44.9620,-89.6459,America/Chicago,"Wausau, WI"
Wyoming,MI,42.8908,-85.7066,America/Detroit,"Wyoming, MI"
Alexandria,LA,31.2923,-92.4702,America/Chicago,"Alexandria, LA"
Hammond,LA,30.5061,-90.4563,America/Chicago,"Hammond, LA"
Baldwin Park,CA,34.0829,-117.9722,America/Los_Angeles,"Baldwin Park, CA"
Carmichael,CA,38.6318,-121.3263,America/Los_Angeles,"Carmichael, CA"
Battle Creek,MI,42.2985,-85.2296,America/Detroit,"Battle Creek, MI"
Bethlehem,PA,40.6266,-75.3679,America/New_York,"Bethlehem, PA"
Fajardo,PR,18.3331,-65.6589,America/Puerto_Rico,"Fajardo, PR"
Gary,IN,41.5905,-87.3473,America/Chicago,"Gary, IN"
Georgetown,TX,30.6660,-97.6966,America/Chicago,"Georgetown, TX"
Missouri City,TX,29.5630,-95.5365,America/Chicago,"Missouri City, TX"
Oshkosh,WI,44.0227,-88.5619,America/Chicago,"Oshkosh, WI"
Milpitas,CA,37.4336,-121.8921,America/Los_Angeles,"Milpitas, CA"
Arlington Heights,IL,42.0955,-87.9826,America/Chicago,"Arlington Heights, IL"
Union City,CA,37.6032,-122.0181,America/Los_Angeles,"Union City, CA"
Wheeling,WV,40.0752,-80.6951,America/New_York,"Wheeling, WV"
Harrisonburg,VA,38.4362,-78.8735,America/New_York,"Harrisonburg, VA"
Winchester,VA,39.1735,-78.1746,America/New_York,"Winchester, VA"
Buckeye,AZ,33.4314,-112.6429,America/Phoenix,"Buckeye, AZ"
Rancho Cordova,CA,38.5737,-121.2527,America/Los_Angeles,"Rancho Cordova, CA"
Pocatello,ID,42.8724,-112.4647,America/Boise,"Pocatello, ID"
Rochester Hills,MI,42.6645,-83.1563,America/Detroit,"Rochester Hills, MI"
Bolingbrook,IL,41.6901,-88.1021,America/Chicago,"Bolingbrook, IL"
Pasco,WA,46.2506,-119.1305,America/Los_Angeles,"Pasco, WA"
Hilton Head Island,SC,32.1896,-80.7499,America/New_York,"Hilton Head Island, SC"
Centreville,VA,38.8390,-77.4389,America/New_York,"Centreville, VA"
Mansfield,OH,40.7656,-82.5275,America/New_York,"Mansfield, OH"
Evanston,IL,42.0464,-87.6943,America/Chicago,"Evanston, IL"
Camden,NJ,39.9361,-75.1073,America/New_York,"Camden, NJ"
South Jordan,UT,40.5570,-111.9784,America/Denver,"South Jordan, UT"
Jonesboro,AR,35.8212,-90.6791,America/Chicago,"Jonesboro, AR"
Lake Jackson,TX,29.0516,-95.4521,America/Chicago,"Lake Jackson, TX"
Schaumburg,IL,42.0308,-88.0838,America/Chicago,"Schaumburg, IL"
Altoona,PA,40.5082,-78.4007,America/New_York,"Altoona, PA"
Apple Valley,CA,34.5352,-117.2109,America/Los_Angeles,"Apple Valley, CA"
Conway,AR,35.0753,-92.4692,America/Chicago,"Conway, AR"
Ellicott City,MD,39.2774,-76.8345,America/New_York,"Ellicott City, MD"
Owensboro,KY,37.7575,-87.1172,America/Chicago,"Owensboro, KY"
Caguas,PR,18.2319,-66.0388,America/Puerto_Rico,"Caguas, PR"
Southfield,MI,42.4765,-83.2605,America/Detroit,"Southfield, MI"
Framingham,MA,42.3085,-71.4368,America/New_York,"Framingham, MA"
Cleveland,TN,35.1817,-84.8707,America/New_York,"Cleveland, TN"
New Britain,CT,41.6759,-72.7862,America/New_York,"New Britain, CT"
Waukesha,WI,43.0087,-88.2464,America/Chicago,"Waukesha, WI"
Dale City,VA,38.6473,-77.3459,America/New_York,"Dale City, VA"
Janesville,WI,42.6854,-89.0135,America/Chicago,"Janesville, WI"
Lauderhill,FL,26.1605,-80.2241,America/New_York,"Lauderhill, FL"
Pawtucket,RI,41.8744,-71.3743,America/New_York,"Pawtucket, RI"
Juana Díaz,PR,18.0532,-66.5044,America/Puerto_Rico,"Juana Díaz, PR"
Pittsburg,CA,38.0182,-121.8965,America/Los_Angeles,"Pittsburg, CA"
Redlands,CA,34.0512,-117.1712,America/Los_Angeles,"Redlands, CA"
Maple Grove,MN,45.1089,-93.4626,America/Chicago,"Maple Grove, MN"
Mansfield,TX,32.5690,-97.1213,America/Chicago,"Mansfield, TX"
Woodbury,MN,44.9057,-92.923,America/Chicago,"Woodbury, MN"
Wenatchee,WA,47.4360,-120.3295,America/Los_Angeles,"Wenatchee, WA"
Jackson,TN,35.6538,-88.8354,America/Chicago,"Jackson, TN"
Weston,FL,26.1006,-80.4054,America/New_York,"Weston, FL"
San Marcos,TX,29.8734,-97.9356,America/Chicago,"San Marcos, TX"
Wilmington,DE,39.7415,-75.5416,America/New_York,"Wilmington, DE"
St. Charles,MO,38.7954,-90.5157,America/Chicago,"St. Charles, MO"
Eldersburg,MD,39.4041,-76.9528,America/New_York,"Eldersburg, MD"
North Richland Hills,TX,32.8604,-97.218,America/Chicago,"North Richland Hills, TX"
Casas Adobes,AZ,32.3423,-111.0113,America/Phoenix,"Casas Adobes, AZ"
Sheboygan,WI,43.7403,-87.7316,America/Chicago,"Sheboygan, WI"
Lodi,CA,38.1218,-121.2932,America/Los_Angeles,"Lodi, CA"
Walnut Creek,CA,37.9024,-122.0399,America/Los_Angeles,"Walnut Creek, CA"
Passaic,NJ,40.8574,-74.1282,America/New_York,"Passaic, NJ"
Bristol,TN,36.5572,-82.2154,America/New_York,"Bristol, TN"
Decatur,AL,34.5731,-86.9905,America/Chicago,"Decatur, AL"
West Bend,WI,43.4173,-88.1818,America/Chicago,"West Bend, WI"
Glen Burnie,MD,39.1560,-76.6071,America/New_York,"Glen Burnie, MD"
Lynwood,CA,33.9240,-118.2016,America/Los_Angeles,"Lynwood, CA"
Dothan,AL,31.2336,-85.407,America/Chicago,"Dothan, AL"
Broomfield,CO,39.9542,-105.0526,America/Denver,"Broomfield, CO"
Lima,OH,40.7410,-84.112,America/New_York,"Lima, OH"
Florida,PR,18.3643,-66.5611,America/Puerto_Rico,"Florida, PR"
Homestead,FL,25.4665,-80.4472,America/New_York,"Homestead, FL"
Delray Beach,FL,26.4550,-80.0905,America/New_York,"Delray Beach, FL"
Daytona Beach,FL,29.1995,-81.0982,America/New_York,"Daytona Beach, FL"
Bossier City,LA,32.5224,-93.6668,America/Chicago,"Bossier City, LA"
Poinciana,FL,28.1217,-81.4821,America/New_York,"Poinciana, FL"
Parkersburg,WV,39.2623,-81.542,America/New_York,"Parkersburg, WV"
Rockville,MD,39.0834,-77.1553,America/New_York,"Rockville, MD"
Yorba Linda,CA,33.8890,-117.7714,America/Los_Angeles,"Yorba Linda, CA"
Union City,NJ,40.7675,-74.0323,America/New_York,"Union City, NJ"
Palo Alto,CA,37.3905,-122.1468,America/Los_Angeles,"Palo Alto, CA"
Redmond,WA,47.6763,-122.1169,America/Los_Angeles,"Redmond, WA"
Longview,WA,46.1461,-122.963,America/Los_Angeles,"Longview, WA"
Bay City,MI,43.5902,-83.8887,America/Detroit,"Bay City, MI"
Dubuque,IA,42.5002,-90.707,America/Chicago,"Dubuque, IA"
Porterville,CA,36.0643,-119.0338,America/Los_Angeles,"Porterville, CA"
Gaithersburg,MD,39.1346,-77.2131,America/New_York,"Gaithersburg, MD"
Palatine,IL,42.1180,-88.043,America/Chicago,"Palatine, IL"
Rogers,AR,36.3170,-94.1531,America/Chicago,"Rogers, AR"
Mount Vernon,WA,48.4203,-122.3115,America/Los_Angeles,"Mount Vernon, WA"
El Paso de Robles,CA,35.6394,-120.656,America/Los_Angeles,"El Paso de Robles, CA"
Mount Vernon,NY,40.9136,-73.8291,America/New_York,"Mount Vernon, NY"
Sherman,TX,33.6273,-96.6221,America/Chicago,"Sherman, TX"
Rocklin,CA,38.8075,-121.2489,America/Los_Angeles,"Rocklin, CA"
Hanover,PA,39.8118,-76.9836,America/New_York,"Hanover, PA"
Rome,GA,34.2662,-85.1863,America/New_York,"Rome, GA"
Lehi,UT,40.4136,-111.8725,America/Denver,"Lehi, UT"
South San Francisco,CA,37.6538,-122.4196,America/Los_Angeles,"South San Francisco, CA"
Kenner,LA,30.0109,-90.2549,America/Chicago,"Kenner, LA"
Guaynabo,PR,18.3832,-66.1134,America/Puerto_Rico,"Guaynabo, PR"
West Des Moines,IA,41.5521,-93.7806,America/Chicago,"West Des Moines, IA"
Redondo Beach,CA,33.8577,-118.3765,America/Los_Angeles,"Redondo Beach, CA"
DeKalb,IL,41.9314,-88.7481,America/Chicago,"DeKalb, IL"
Petaluma,CA,38.2423,-122.6266,America/Los_Angeles,"Petaluma, CA"
Alpharetta,GA,34.0704,-84.2738,America/New_York,"Alpharetta, GA"
Carbondale,IL,37.7221,-89.2237,America/Chicago,"Carbondale, IL"
Tamarac,FL,26.2056,-80.2539,America/New_York,"Tamarac, FL"
Victoria,TX,28.8287,-96.9849,America/Chicago,"Victoria, TX"
Albany,OR,44.6272,-123.0965,America/Los_Angeles,"Albany, OR"
Eagan,MN,44.8170,-93.1638,America/Chicago,"Eagan, MN"
Saratoga Springs,NY,43.0674,-73.7775,America/New_York,"Saratoga Springs, NY"
Corvallis,OR,44.5698,-123.2779,America/Los_Angeles,"Corvallis, OR"
North Little Rock,AR,34.7807,-92.2371,America/Chicago,"North Little Rock, AR"
Glens Falls,NY,43.3109,-73.6458,America/New_York,"Glens Falls, NY"
Michigan City,IN,41.7092,-86.869,America/Chicago,"Michigan City, IN"
Ames,IA,42.0256,-93.6217,America/Chicago,"Ames, IA"
Shawnee,KS,39.0158,-94.8076,America/Chicago,"Shawnee, KS"
Eastvale,CA,33.9617,-117.5803,America/Los_Angeles,"Eastvale, CA"
Lakeville,MN,44.6774,-93.252,America/Chicago,"Lakeville, MN"
Weirton,WV,40.4060,-80.5671,America/New_York,"Weirton, WV"
Rowlett,TX,32.9155,-96.5489,America/Chicago,"Rowlett, TX"
Guayama,PR,17.9743,-66.1104,America/Puerto_Rico,"Guayama, PR"
Schenectady,NY,42.8025,-73.9275,America/New_York,"Schenectady, NY"
Sammamish,WA,47.6017,-122.0416,America/Los_Angeles,"Sammamish, WA"
Castle Rock,CO,39.3763,-104.8535,America/Denver,"Castle Rock, CO"
Jupiter,FL,26.9200,-80.1128,America/New_York,"Jupiter, FL"
Bayonne,NJ,40.6668,-74.1158,America/New_York,"Bayonne, NJ"
Bethesda,MD,38.9866,-77.1188,America/New_York,"Bethesda, MD"
Blaine,MN,45.1696,-93.2077,America/Chicago,"Blaine, MN"
Laguna Niguel,CA,33.5275,-117.705,America/Los_Angeles,"Laguna Niguel, CA"
Wellington,FL,26.6461,-80.2699,America/New_York,"Wellington, FL"
San Clemente,CA,33.4499,-117.6102,America/Los_Angeles,"San Clemente, CA"
Florence-Graham,CA,33.9682,-118.2447,America/Los_Angeles,"Florence-Graham, CA"
Ankeny,IA,41.7288,-93.6031,America/Chicago,"Ankeny, IA"
East Orange,NJ,40.7651,-74.2117,America/New_York,"East Orange, NJ"
Tulare,CA,36.1995,-119.34,America/Los_Angeles,"Tulare, CA"
Eden Prairie,MN,44.8488,-93.4595,America/Chicago,"Eden Prairie, MN"
Noblesville,IN,40.0355,-86.0042,America/Indiana/Indianapolis,"Noblesville, IN"
Castro Valley,CA,37.7088,-122.0626,America/Los_Angeles,"Castro Valley, CA"
Port Charlotte,FL,26.9918,-82.114,America/New_York,"Port Charlotte, FL"
Lake Elsinore,CA,33.6847,-117.3344,America/Los_Angeles,"Lake Elsinore, CA"
Fairbanks,AK,64.8353,-147.6533,America/Anchorage,"Fairbanks, AK"
South Hill,WA,47.1198,-122.2853,America/Los_Angeles,"South Hill, WA"
Twin Rivers,NJ,40.2631,-74.4917,America/New_York,"Twin Rivers, NJ"
Bellevue,NE,41.1485,-95.939,America/Chicago,"Bellevue, NE"
Casper,WY,42.8420,-106.3208,America/Denver,"Casper, WY"
Dublin,CA,37.7161,-121.8963,America/Los_Angeles,"Dublin, CA"
Dundalk,MD,39.2704,-76.4942,America/New_York,"Dundalk, MD"
Port Orange,FL,29.1085,-81.0137,America/New_York,"Port Orange, FL"
Haverhill,MA,42.7838,-71.0871,America/New_York,"Haverhill, MA"
Grand Forks,ND,47.9214,-97.0884,America/Chicago,"Grand Forks, ND"
The Hammocks,FL,25.6700,-80.4482,America/New_York,"The Hammocks, FL"
Pflugerville,TX,30.4515,-97.6018,America/Chicago,"Pflugerville, TX"
Elmira,NY,42.0938,-76.8097,America/New_York,"Elmira, NY"
Skokie,IL,42.0360,-87.74,America/Chicago,"Skokie, IL"
Sebring,FL,27.4770,-81.453,America/New_York,"Sebring, FL"
Brentwood,CA,37.9356,-121.719,America/Los_Angeles,"Brentwood, CA"
Encinitas,CA,33.0492,-117.261,America/Los_Angeles,"Encinitas, CA"
La Habra,CA,33.9282,-117.9515,America/Los_Angeles,"La Habra, CA"
Brentwood,NY,40.7839,-73.2522,America/New_York,"Brentwood, NY"
Springfield,OR,44.0538,-122.9811,America/Los_Angeles,"Springfield, OR"
Coon Rapids,MN,45.1755,-93.3094,America/Chicago,"Coon Rapids, MN"
Montebello,CA,34.0155,-118.1108,America/Los_Angeles,"Montebello, CA"
Waltham,MA,42.3889,-71.2423,America/New_York,"Waltham, MA"
Pico Rivera,CA,33.9901,-118.0888,America/Los_Angeles,"Pico Rivera, CA"
North Miami,FL,25.9008,-80.1686,America/New_York,"North Miami, FL"
Council Bluffs,IA,41.2369,-95.8516,America/Chicago,"Council Bluffs, IA"
Doral,FL,25.8152,-80.3565,America/New_York,"Doral, FL"
Hamilton,OH,39.3939,-84.5653,America/New_York,"Hamilton, OH"
Great Falls,MT,47.5022,-111.2996,America/Denver,"Great Falls, MT"
Rocky Mount,NC,35.9685,-77.804,America/New_York,"Rocky Mount, NC"
Chapel Hill,NC,35.9271,-79.0391,America/New_York,"Chapel Hill, NC"
Palm Harbor,FL,28.0847,-82.7481,America/New_York,"Palm Harbor, FL"
Moore,OK,35.3293,-97.4757,America/Chicago,"Moore, OK"
Burnsville,MN,44.7648,-93.2793,America/Chicago,"Burnsville, MN"
Spring,TX,30.0613,-95.383,America/Chicago,"Spring, TX"
Reston,VA,38.9497,-77.3461,America/New_York,"Reston, VA"
National City,CA,32.6654,-117.0983,America/Los_Angeles,"National City, CA"
Taylor,MI,42.2260,-83.2688,America/Detroit,"Taylor, MI"
Coconut Creek,FL,26.2803,-80.1842,America/New_York,"Coconut Creek, FL"
Millcreek,UT,40.6892,-111.8292,America/Denver,"Millcreek, UT"
Malden,MA,42.4305,-71.0576,America/New_York,"Malden, MA"
Marietta,GA,33.9533,-84.5422,America/New_York,"Marietta, GA"
Leander,TX,30.5728,-97.8618,America/Chicago,"Leander, TX"
Monterey Park,CA,34.0497,-118.1326,America/Los_Angeles,"Monterey Park, CA"
Lakewood,WA,47.1628,-122.5299,America/Los_Angeles,"Lakewood, WA"
Wesley Chapel,FL,28.2106,-82.3238,America/New_York,"Wesley Chapel, FL"
Novi,MI,42.4786,-83.4893,America/Detroit,"Novi, MI"
Sanford,FL,28.7891,-81.2757,America/New_York,"Sanford, FL"
La Mesa,CA,32.7703,-117.0204,America/Los_Angeles,"La Mesa, CA"
Bristol,CT,41.6812,-72.9407,America/New_York,"Bristol, CT"
Taylorsville,UT,40.6569,-111.9493,America/Denver,"Taylorsville, UT"
West Allis,WI,43.0068,-88.0296,America/Chicago,"West Allis, WI"
Cupertino,CA,37.3168,-122.0466,America/Los_Angeles,"Cupertino, CA"
Woodland,CA,38.6712,-121.75,America/Los_Angeles,"Woodland, CA"
Pontiac,MI,42.6493,-83.2878,America/Detroit,"Pontiac, MI"
Meriden,CT,41.5369,-72.7946,America/New_York,"Meriden, CT"
Gardena,CA,33.8943,-118.3072,America/Los_Angeles,"Gardena, CA"
Royal Oak,MI,42.5084,-83.1539,America/Detroit,"Royal Oak, MI"
Bartlett,TN,35.2337,-89.8195,America/Chicago,"Bartlett, TN"
St. Clair Shores,MI,42.4925,-82.8961,America/Detroit,"St. Clair Shores, MI"
San Rafael,CA,37.9905,-122.5221,America/Los_Angeles,"San Rafael, CA"
Fountainebleau,FL,25.7723,-80.346,America/New_York,"Fountainebleau, FL"
Greenwood,IN,39.6019,-86.1073,America/Indiana/Indianapolis,"Greenwood, IN"
South Whittier,CA,33.9336,-118.0312,America/Los_Angeles,"South Whittier, CA"
Margate,FL,26.2466,-80.2119,America/New_York,"Margate, FL"
Orland Park,IL,41.6075,-87.8619,America/Chicago,"Orland Park, IL"
Des Plaines,IL,42.0345,-87.9008,America/Chicago,"Des Plaines, IL"
Medford,MA,42.4234,-71.1087,America/New_York,"Medford, MA"
White Plains,NY,41.0220,-73.7547,America/New_York,"White Plains, NY"
Bowie,MD,38.9549,-76.7406,America/New_York,"Bowie, MD"
Kokomo,IN,40.4640,-86.1277,America/Indiana/Indianapolis,"Kokomo, IN"
Hendersonville,TN,36.3063,-86.5997,America/Chicago,"Hendersonville, TN"
Huntington Park,CA,33.9800,-118.2167,America/Los_Angeles,"Huntington Park, CA"
Towson,MD,39.3944,-76.619,America/New_York,"Towson, MD"
St. Peters,MO,38.7825,-90.6061,America/Chicago,"St. Peters, MO"
Santee,CA,32.8554,-116.9851,America/Los_Angeles,"Santee, CA"
Midwest City,OK,35.4630,-97.371,America/Chicago,"Midwest City, OK"
Richland,WA,46.2824,-119.2939,America/Los_Angeles,"Richland, WA"
Bradenton,FL,27.4901,-82.5757,America/New_York,"Bradenton, FL"
Taunton,MA,41.9036,-71.0943,America/New_York,"Taunton, MA"
Casa Grande,AZ,32.9069,-111.7624,America/Phoenix,"Casa Grande, AZ"
Huntersville,NC,35.4060,-80.8716,America/New_York,"Huntersville, NC"
Arcadia,CA,34.1342,-118.0373,America/Los_Angeles,"Arcadia, CA"
Palm Beach Gardens,FL,26.8466,-80.1679,America/New_York,"Palm Beach Gardens, FL"
Shoreline,WA,47.7564,-122.3426,America/Los_Angeles,"Shoreline, WA"
Caldwell,ID,43.6453,-116.6594,America/Boise,"Caldwell, ID"
Euless,TX,32.8508,-97.08,America/Chicago,"Euless, TX"
Smyrna,GA,33.8633,-84.5168,America/New_York,"Smyrna, GA"
Fountain Valley,CA,33.7105,-117.9514,America/Los_Angeles,"Fountain Valley, CA"
Tinley Park,IL,41.5670,-87.8049,America/Chicago,"Tinley Park, IL"
New Brunswick,NJ,40.4870,-74.445,America/New_York,"New Brunswick, NJ"
Commerce City,CO,39.8641,-104.843,America/Denver,"Commerce City, CO"
Diamond Bar,CA,33.9992,-117.8161,America/Los_Angeles,"Diamond Bar, CA"
Tamiami,FL,25.7556,-80.4016,America/New_York,"Tamiami, FL"
Kendale Lakes,FL,25.7081,-80.4078,America/New_York,"Kendale Lakes, FL"
Dearborn Heights,MI,42.3164,-83.2769,America/Detroit,"Dearborn Heights, MI"
Lake Havasu City,AZ,34.5006,-114.3113,America/Los_Angeles,"Lake Havasu City, AZ"
Parker,CO,39.5084,-104.7753,America/Denver,"Parker, CO"
Oak Lawn,IL,41.7139,-87.7528,America/Chicago,"Oak Lawn, IL"
Blue Springs,MO,39.0124,-94.2721,America/Chicago,"Blue Springs, MO"
Hacienda Heights,CA,33.9970,-117.9727,America/Los_Angeles,"Hacienda Heights, CA"
Highland,CA,34.1113,-117.165,America/Los_Angeles,"Highland, CA"
Kettering,OH,39.6956,-84.1494,America/New_York,"Kettering, OH"
Carson City,NV,39.1511,-119.7476,America/Los_Angeles,"Carson City, NV"
Apex,NC,35.7237,-78.8743,America/New_York,"Apex, NC"
Chicopee,MA,42.1764,-72.5719,America/New_York,"Chicopee, MA"
Manhattan,KS,39.1886,-96.6048,America/Chicago,"Manhattan, KS"
Southaven,MS,34.9514,-89.9786,America/Chicago,"Southaven, MS"
Berwyn,IL,41.8433,-87.7909,America/Chicago,"Berwyn, IL"
Cathedral City,CA,33.8362,-116.4642,America/Los_Angeles,"Cathedral City, CA"
Lenexa,KS,38.9609,-94.8018,America/Chicago,"Lenexa, KS"
Brookhaven,GA,33.8743,-84.3314,America/New_York,"Brookhaven, GA"
Normal,IL,40.5217,-88.9884,America/Chicago,"Normal, IL"
West Haven,CT,41.2739,-72.9672,America/New_York,"West Haven, CT"
Stonecrest,GA,33.6842,-84.1372,America/New_York,"Stonecrest, GA"
Westchester,FL,25.7471,-80.3523,America/New_York,"Westchester, FL"
Yucaipa,CA,34.0336,-117.0429,America/Los_Angeles,"Yucaipa, CA"
Colton,CA,34.0538,-117.3255,America/Los_Angeles,"Colton, CA"
Mount Prospect,IL,42.0641,-87.9375,America/Chicago,"Mount Prospect, IL"
Grapevine,TX,32.9343,-97.0742,America/Chicago,"Grapevine, TX"
Tigard,OR,45.4237,-122.7845,America/Los_Angeles,"Tigard, OR"
Paramount,CA,33.8977,-118.1651,America/Los_Angeles,"Paramount, CA"
Aspen Hill,MD,39.0927,-77.0826,America/New_York,"Aspen Hill, MD"
Rosemead,CA,34.0689,-118.0823,America/Los_Angeles,"Rosemead, CA"
Elyria,OH,41.3760,-82.106,America/New_York,"Elyria, OH"
Novato,CA,38.0920,-122.5575,America/Los_Angeles,"Novato, CA"
Minnetonka,MN,44.9322,-93.4598,America/Chicago,"Minnetonka, MN"
Leesburg,VA,39.1057,-77.5544,America/New_York,"Leesburg, VA"
Apple Valley,MN,44.7457,-93.2004,America/Chicago,"Apple Valley, MN"
Aloha,OR,45.4920,-122.8725,America/Los_Angeles,"Aloha, OR"
Summerville,SC,33.0016,-80.1799,America/New_York,"Summerville, SC"
West Sacramento,CA,38.5557,-121.5505,America/Los_Angeles,"West Sacramento, CA"
Pinellas Park,FL,27.8589,-82.7078,America/New_York,"Pinellas Park, FL"
Revere,MA,42.4189,-71.004,America/New_York,"Revere, MA"
Severn,MD,39.1355,-76.6956,America/New_York,"Severn, MD"
Hoboken,NJ,40.7452,-74.0281,America/New_York,"Hoboken, NJ"
DeSoto,TX,32.5992,-96.8633,America/Chicago,"DeSoto, TX"
Wheaton,IL,41.8561,-88.1085,America/Chicago,"Wheaton, IL"
St. Cloud,FL,28.2363,-81.2779,America/New_York,"St. Cloud, FL"
Palm Desert,CA,33.7378,-116.3695,America/Los_Angeles,"Palm Desert, CA"
Peabody,MA,42.5335,-70.9725,America/New_York,"Peabody, MA"
Milford city ,CT,41.2255,-73.0625,America/New_York,"Milford city , CT"
Delano,CA,35.7662,-119.2635,America/Los_Angeles,"Delano, CA"
Apopka,FL,28.7015,-81.5316,America/New_York,"Apopka, FL"
West New York,NJ,40.7857,-74.0094,America/New_York,"West New York, NJ"
Edina,MN,44.8914,-93.3602,America/Chicago,"Edina, MN"
Queen Creek,AZ,33.2454,-111.6173,America/Phoenix,"Queen Creek, AZ"
Oak Park,IL,41.8872,-87.7899,America/Chicago,"Oak Park, IL"
Bentonville,AR,36.3547,-94.2305,America/Chicago,"Bentonville, AR"
Placentia,CA,33.8807,-117.8553,America/Los_Angeles,"Placentia, CA"
Kentwood,MI,42.8852,-85.5926,America/Detroit,"Kentwood, MI"
Perth Amboy,NJ,40.5202,-74.2724,America/New_York,"Perth Amboy, NJ"
Burien,WA,47.4762,-122.3394,America/Los_Angeles,"Burien, WA"
Levittown,NY,40.7241,-73.5125,America/New_York,"Levittown, NY"
Wylie,TX,33.0362,-96.5161,America/Chicago,"Wylie, TX"
Grand Island,NE,40.9218,-98.3586,America/Chicago,"Grand Island, NE"
Florissant,MO,38.7996,-90.3269,America/Chicago,"Florissant, MO"
Wheaton,MD,39.0492,-77.0573,America/New_York,"Wheaton, MD"
Glendora,CA,34.1449,-117.8467,America/Los_Angeles,"Glendora, CA"
Lacey,WA,47.0462,-122.7933,America/Los_Angeles,"Lacey, WA"
Smyrna,TN,35.9687,-86.5264,America/Chicago,"Smyrna, TN"
Madison,AL,34.7114,-86.7626,America/Chicago,"Madison, AL"
Catalina Foothills,AZ,32.3046,-110.8838,America/Phoenix,"Catalina Foothills, AZ"
Collierville,TN,35.0470,-89.6987,America/Chicago,"Collierville, TN"
Methuen Town,MA,42.7340,-71.1889,America/New_York,"Methuen Town, MA"
Hoffman Estates,IL,42.0640,-88.1468,America/Chicago,"Hoffman Estates, IL"
Country Club,FL,25.9407,-80.3102,America/New_York,"Country Club, FL"
Aliso Viejo,CA,33.5792,-117.7289,America/Los_Angeles,"Aliso Viejo, CA"
Maricopa,AZ,33.0408,-112.0011,America/Phoenix,"Maricopa, AZ"
Galveston,TX,29.2484,-94.8913,America/Chicago,"Galveston, TX"
Plainfield,NJ,40.6154,-74.4157,America/New_York,"Plainfield, NJ"
Stillwater,OK,36.1317,-97.0742,America/Chicago,"Stillwater, OK"
Enid,OK,36.4063,-97.87,America/Chicago,"Enid, OK"
Lakewood,OH,41.4822,-81.8008,America/New_York,"Lakewood, OH"
Coral Gables,FL,25.7037,-80.2715,America/New_York,"Coral Gables, FL"
Levittown,PA,40.1533,-74.8531,America/New_York,"Levittown, PA"
Rowland Heights,CA,33.9716,-117.8912,America/Los_Angeles,"Rowland Heights, CA"
Twin Falls,ID,42.5645,-114.4613,America/Boise,"Twin Falls, ID"
Little Elm,TX,33.1858,-96.9295,America/Chicago,"Little Elm, TX"
Kannapolis,NC,35.4764,-80.6408,America/New_York,"Kannapolis, NC"
Poway,CA,32.9871,-117.0201,America/Los_Angeles,"Poway, CA"
North Bethesda,MD,39.0393,-77.1191,America/New_York,"North Bethesda, MD"
Mishawaka,IN,41.6742,-86.1666,America/Indiana/Indianapolis,"Mishawaka, IN"
West Lafayette,IN,40.4432,-86.9238,America/Indiana/Indianapolis,"West Lafayette, IN"
Azusa,CA,34.1386,-117.9124,America/Los_Angeles,"Azusa, CA"
Dunwoody,GA,33.9418,-84.3122,America/New_York,"Dunwoody, GA"
Cerritos,CA,33.8678,-118.0686,America/Los_Angeles,"Cerritos, CA"
Wilson,NC,35.7311,-77.9284,America/New_York,"Wilson, NC"
Downers Grove,IL,41.7949,-88.0172,America/Chicago,"Downers Grove, IL"
Troy,NY,42.7354,-73.6751,America/New_York,"Troy, NY"
Portage,MI,42.2000,-85.5906,America/Detroit,"Portage, MI"
Cuyahoga Falls,OH,41.1641,-81.5207,America/New_York,"Cuyahoga Falls, OH"
Bedford,TX,32.8464,-97.135,America/Chicago,"Bedford, TX"
Cypress,CA,33.8171,-118.0386,America/Los_Angeles,"Cypress, CA"
Lawrence,IN,39.8674,-85.9904,America/Indiana/Indianapolis,"Lawrence, IN"
Murray,UT,40.6498,-111.8874,America/Denver,"Murray, UT"
St. Louis Park,MN,44.9488,-93.3649,America/Chicago,"St. Louis Park, MN"
Florin,CA,38.4832,-121.4043,America/Los_Angeles,"Florin, CA"
Columbus,IN,39.2093,-85.9183,America/Indiana/Indianapolis,"Columbus, IN"
San Jacinto,CA,33.7970,-116.9916,America/Los_Angeles,"San Jacinto, CA"
North Highlands,CA,38.6713,-121.3721,America/Los_Angeles,"North Highlands, CA"
Draper,UT,40.4957,-111.8605,America/Denver,"Draper, UT"
McLean,VA,38.9436,-77.1943,America/New_York,"McLean, VA"
Tuckahoe,VA,37.5878,-77.5858,America/New_York,"Tuckahoe, VA"
Antelope,CA,38.7153,-121.361,America/Los_Angeles,"Antelope, CA"
East Lansing,MI,42.7480,-84.4836,America/Detroit,"East Lansing, MI"
Palm Springs,CA,33.8017,-116.5382,America/Los_Angeles,"Palm Springs, CA"
Ceres,CA,37.5952,-120.962,America/Los_Angeles,"Ceres, CA"
University,FL,28.0771,-82.4335,America/New_York,"University, FL"
Cedar Hill,TX,32.5810,-96.9591,America/Chicago,"Cedar Hill, TX"
Bozeman,MT,45.6833,-111.0558,America/Denver,"Bozeman, MT"
Rancho Santa Margarita,CA,33.6318,-117.5988,America/Los_Angeles,"Rancho Santa Margarita, CA"
Beaumont,CA,33.9076,-116.9766,America/Los_Angeles,"Beaumont, CA"
La Mirada,CA,33.9025,-118.0093,America/Los_Angeles,"La Mirada, CA"
Lincoln,CA,38.8774,-121.2937,America/Los_Angeles,"Lincoln, CA"
Newark,CA,37.5201,-122.0307,America/Los_Angeles,"Newark, CA"
Wauwatosa,WI,43.0616,-88.0347,America/Chicago,"Wauwatosa, WI"
Niagara Falls,NY,43.0921,-79.0147,America/Toronto,"Niagara Falls, NY"
Jeffersonville,IN,38.3376,-85.7026,America/Kentucky/Louisville,"Jeffersonville, IN"
Minot,ND,48.2375,-101.278,America/Chicago,"Minot, ND"
Dublin,OH,40.1112,-83.1454,America/New_York,"Dublin, OH"
Covina,CA,34.0903,-117.8818,America/Los_Angeles,"Covina, CA"
Roswell,NM,33.3730,-104.5294,America/Denver,"Roswell, NM"
Chesterfield,MO,38.6589,-90.5803,America/Chicago,"Chesterfield, MO"
East Providence,RI,41.8065,-71.3565,America/New_York,"East Providence, RI"
Ocoee,FL,28.5796,-81.5332,America/New_York,"Ocoee, FL"
San Luis Obispo,CA,35.2669,-120.669,America/Los_Angeles,"San Luis Obispo, CA"
Beavercreek,OH,39.7310,-84.0624,America/New_York,"Beavercreek, OH"
Glenview,IL,42.0825,-87.8214,America/Chicago,"Glenview, IL"
Marana,AZ,32.4355,-111.1558,America/Phoenix,"Marana, AZ"
Roseville,MI,42.5074,-82.9369,America/Detroit,"Roseville, MI"
Burleson,TX,32.5170,-97.3344,America/Chicago,"Burleson, TX"
East Honolulu,HI,21.2975,-157.7211,Pacific/Honolulu,"East Honolulu, HI"
El Dorado Hills,CA,38.6750,-121.049,America/Los_Angeles,"El Dorado Hills, CA"
Mentor,OH,41.6893,-81.3362,America/New_York,"Mentor, OH"
Keller,TX,32.9335,-97.2256,America/Chicago,"Keller, TX"
Euclid,OH,41.5903,-81.5188,America/New_York,"Euclid, OH"
Salina,KS,38.8136,-97.6143,America/Chicago,"Salina, KS"
Elmhurst,IL,41.8973,-87.9432,America/Chicago,"Elmhurst, IL"
Middletown,CT,41.5476,-72.6549,America/New_York,"Middletown, CT"
Bothell,WA,47.7735,-122.2044,America/Los_Angeles,"Bothell, WA"
Titusville,FL,28.5727,-80.8193,America/New_York,"Titusville, FL"
Everett,MA,42.4064,-71.0545,America/New_York,"Everett, MA"
Potomac,MD,39.0141,-77.1943,America/New_York,"Potomac, MD"
Littleton,CO,39.5915,-105.0188,America/Denver,"Littleton, CO"
Horizon West,FL,28.4417,-81.6146,America/New_York,"Horizon West, FL"
Biloxi,MS,30.4426,-88.9514,America/Chicago,"Biloxi, MS"
Fort Pierce,FL,27.4255,-80.3431,America/New_York,"Fort Pierce, FL"
Kyle,TX,29.9932,-97.8852,America/Chicago,"Kyle, TX"
Coachella,CA,33.6905,-116.143,America/Los_Angeles,"Coachella, CA"
Oro Valley,AZ,32.4208,-110.9767,America/Phoenix,"Oro Valley, AZ"
Hilo,HI,19.6883,-155.0863,Pacific/Honolulu,"Hilo, HI"
Herriman,UT,40.4899,-112.017,America/Denver,"Herriman, UT"
Rockwall,TX,32.9169,-96.4374,America/Chicago,"Rockwall, TX"
Pearl City,HI,21.4031,-157.9566,Pacific/Honolulu,"Pearl City, HI"
Lake Ridge,VA,38.6847,-77.3066,America/New_York,"Lake Ridge, VA"
Attleboro,MA,41.9311,-71.295,America/New_York,"Attleboro, MA"
Sicklerville,NJ,39.7452,-74.9934,America/New_York,"Sicklerville, NJ"
Farmington,NM,36.7555,-108.1823,America/Denver,"Farmington, NM"
Oakland Park,FL,26.1780,-80.1528,America/New_York,"Oakland Park, FL"
Danville,CA,37.8121,-121.9698,America/Los_Angeles,"Danville, CA"
Winter Garden,FL,28.5421,-81.5967,America/New_York,"Winter Garden, FL"
Plainfield,IL,41.6207,-88.2253,America/Chicago,"Plainfield, IL"
Morgan Hill,CA,37.1325,-121.6419,America/Los_Angeles,"Morgan Hill, CA"
Strongsville,OH,41.3128,-81.8313,America/New_York,"Strongsville, OH"
San Bruno,CA,37.6256,-122.4313,America/Los_Angeles,"San Bruno, CA"
Whitney,NV,36.1008,-115.0379,America/Los_Angeles,"Whitney, NV"
Haltom City,TX,32.8176,-97.2707,America/Chicago,"Haltom City, TX"
Hackensack,NJ,40.8891,-74.0462,America/New_York,"Hackensack, NJ"
Sayreville,NJ,40.4656,-74.3237,America/New_York,"Sayreville, NJ"
North Lauderdale,FL,26.2113,-80.2209,America/New_York,"North Lauderdale, FL"
Brea,CA,33.9254,-117.8655,America/Los_Angeles,"Brea, CA"
Cleveland Heights,OH,41.5113,-81.5636,America/New_York,"Cleveland Heights, OH"
Ashburn,VA,39.0277,-77.4714,America/New_York,"Ashburn, VA"
Burke,VA,38.7773,-77.2633,America/New_York,"Burke, VA"
Wake Forest,NC,35.9632,-78.514,America/New_York,"Wake Forest, NC"
Bountiful,UT,40.8721,-111.8647,America/Denver,"Bountiful, UT"
Altamonte Springs,FL,28.6615,-81.3953,America/New_York,"Altamonte Springs, FL"
Cutler Bay,FL,25.5765,-80.3356,America/New_York,"Cutler Bay, FL"
Urbandale,IA,41.6390,-93.7812,America/Chicago,"Urbandale, IA"
Riverton,UT,40.5176,-111.9636,America/Denver,"Riverton, UT"
The Colony,TX,33.0925,-96.8976,America/Chicago,"The Colony, TX"
Sierra Vista,AZ,31.5630,-110.3153,America/Phoenix,"Sierra Vista, AZ"
Lombard,IL,41.8741,-88.0157,America/Chicago,"Lombard, IL"
Peachtree Corners,GA,33.9670,-84.232,America/New_York,"Peachtree Corners, GA"
Concord,NH,43.2305,-71.5595,America/New_York,"Concord, NH"
Prescott,AZ,34.5849,-112.4473,America/Phoenix,"Prescott, AZ"
Moorhead,MN,46.8673,-96.7461,America/Chicago,"Moorhead, MN"
Channelview,TX,29.7914,-95.1144,America/Chicago,"Channelview, TX"
Salem,MA,42.5129,-70.9021,America/New_York,"Salem, MA"
Ormond Beach,FL,29.2985,-81.1014,America/New_York,"Ormond Beach, FL"
Altadena,CA,34.1927,-118.1346,America/Los_Angeles,"Altadena, CA"
Freeport,NY,40.6515,-73.585,America/New_York,"Freeport, NY"
Fond du Lac,WI,43.7718,-88.4397,America/Chicago,"Fond du Lac, WI"
Goose Creek,SC,32.9927,-80.0055,America/New_York,"Goose Creek, SC"
Campbell,CA,37.2802,-121.9539,America/Los_Angeles,"Campbell, CA"
North Miami Beach,FL,25.9302,-80.1659,America/New_York,"North Miami Beach, FL"
Lompoc,CA,34.6618,-120.4714,America/Los_Angeles,"Lompoc, CA"
Brentwood,TN,35.9918,-86.7758,America/Chicago,"Brentwood, TN"
Mankato,MN,44.1715,-93.9772,America/Chicago,"Mankato, MN"
Jefferson City,MO,38.5676,-92.1759,America/Chicago,"Jefferson City, MO"
Farmers Branch,TX,32.9272,-96.8804,America/Chicago,"Farmers Branch, TX"
Fairfield,OH,39.3301,-84.5409,America/New_York,"Fairfield, OH"
Rohnert Park,CA,38.3479,-122.6965,America/Los_Angeles,"Rohnert Park, CA"
Woodbridge,VA,38.6409,-77.258,America/New_York,"Woodbridge, VA"
Pittsfield,MA,42.4517,-73.2605,America/New_York,"Pittsfield, MA"
Hicksville,NY,40.7637,-73.5245,America/New_York,"Hicksville, NY"
Urbana,IL,40.1107,-88.1973,America/Chicago,"Urbana, IL"
Schertz,TX,29.5650,-98.2535,America/Chicago,"Schertz, TX"
Edmonds,WA,47.8115,-122.3533,America/Los_Angeles,"Edmonds, WA"
Linden,NJ,40.6251,-74.2383,America/New_York,"Linden, NJ"
Pine Bluff,AR,34.2116,-92.0173,America/Chicago,"Pine Bluff, AR"
West Babylon,NY,40.7129,-73.3585,America/New_York,"West Babylon, NY"
North Fort Myers,FL,26.7244,-81.8485,America/New_York,"North Fort Myers, FL"
Odenton,MD,39.0661,-76.6938,America/New_York,"Odenton, MD"
Annandale,VA,38.8324,-77.196,America/New_York,"Annandale, VA"
Beverly,MA,42.5681,-70.8627,America/New_York,"Beverly, MA"
Midland,MI,43.6241,-84.2319,America/Detroit,"Midland, MI"
Apache Junction,AZ,33.3985,-111.535,America/Phoenix,"Apache Junction, AZ"
Delaware,OH,40.2851,-83.0741,America/New_York,"Delaware, OH"
Spring Hill,TN,35.7437,-86.9116,America/Chicago,"Spring Hill, TN"
Bell Gardens,CA,33.9663,-118.155,America/Los_Angeles,"Bell Gardens, CA"
Puyallup,WA,47.1793,-122.2902,America/Los_Angeles,"Puyallup, WA"
Huntsville,TX,30.7009,-95.5567,America/Chicago,"Huntsville, TX"
Trujillo Alto,PR,18.3599,-66.0096,America/Puerto_Rico,"Trujillo Alto, PR"
Oakley,CA,37.9929,-121.6952,America/Los_Angeles,"Oakley, CA"
Westfield,IN,40.0341,-86.1529,America/Indiana/Indianapolis,"Westfield, IN"
La Quinta,CA,33.6536,-116.2785,America/Los_Angeles,"La Quinta, CA"
Mableton,GA,33.8133,-84.5655,America/New_York,"Mableton, GA"
Rancho Palos Verdes,CA,33.7554,-118.3634,America/Los_Angeles,"Rancho Palos Verdes, CA"
Woonsocket,RI,42.0010,-71.4993,America/New_York,"Woonsocket, RI"
Catonsville,MD,39.2646,-76.7424,America/New_York,"Catonsville, MD"
Woodlawn,MD,39.3054,-76.7489,America/New_York,"Woodlawn, MD"
Coppell,TX,32.9639,-96.9903,America/Chicago,"Coppell, TX"
Linton Hall,VA,38.7551,-77.575,America/New_York,"Linton Hall, VA"
Shakopee,MN,44.7745,-93.4772,America/Chicago,"Shakopee, MN"
Grove City,OH,39.8654,-83.069,America/New_York,"Grove City, OH"
Westfield,MA,42.1382,-72.7561,America/New_York,"Westfield, MA"
Belleville,IL,38.5164,-89.99,America/Chicago,"Belleville, IL"
Greenacres,FL,26.6270,-80.1371,America/New_York,"Greenacres, FL"
Moline,IL,41.4821,-90.492,America/Chicago,"Moline, IL"
Kearny,NJ,40.7528,-74.1202,America/New_York,"Kearny, NJ"
Shelton,CT,41.3060,-73.1383,America/New_York,"Shelton, CT"
Weslaco,TX,26.1599,-97.9877,America/Chicago,"Weslaco, TX"
Findlay,OH,41.0469,-83.6379,America/New_York,"Findlay, OH"
Oviedo,FL,28.6580,-81.1872,America/New_York,"Oviedo, FL"
Manassas,VA,38.7479,-77.4838,America/New_York,"Manassas, VA"
Bartlett,IL,41.9804,-88.2071,America/Chicago,"Bartlett, IL"
Bullhead City,AZ,35.1205,-114.5461,America/Phoenix,"Bullhead City, AZ"
Wilkes-Barre,PA,41.2469,-75.876,America/New_York,"Wilkes-Barre, PA"
Buffalo Grove,IL,42.1675,-87.9615,America/Chicago,"Buffalo Grove, IL"
Cedar Falls,IA,42.5195,-92.4536,America/Chicago,"Cedar Falls, IA"
Maplewood,MN,44.9842,-93.0247,America/Chicago,"Maplewood, MN"
Hutchinson,KS,38.0671,-97.9081,America/Chicago,"Hutchinson, KS"
Danville,VA,36.5831,-79.4088,America/New_York,"Danville, VA"
Coram,NY,40.8812,-73.0059,America/New_York,"Coram, NY"
Fitchburg,MA,42.5912,-71.8156,America/New_York,"Fitchburg, MA"
Covington,KY,39.0334,-84.5166,America/New_York,"Covington, KY"
Huber Heights,OH,39.8595,-84.113,America/New_York,"Huber Heights, OH"
Westerville,OH,40.1241,-82.921,America/New_York,"Westerville, OH"
Lancaster,OH,39.7248,-82.6049,America/New_York,"Lancaster, OH"
Wentzville,MO,38.8153,-90.8669,America/Chicago,"Wentzville, MO"
Woburn,MA,42.4869,-71.1543,America/New_York,"Woburn, MA"
Gallatin,TN,36.3782,-86.4698,America/Chicago,"Gallatin, TN"
Valrico,FL,27.9193,-82.2293,America/New_York,"Valrico, FL"
Newnan,GA,33.3767,-84.7761,America/New_York,"Newnan, GA"
Holyoke,MA,42.2125,-72.6411,America/New_York,"Holyoke, MA"
Quincy,IL,39.9336,-91.3799,America/Chicago,"Quincy, IL"
San Gabriel,CA,34.0949,-118.099,America/Los_Angeles,"San Gabriel, CA"
Cape Girardeau,MO,37.3109,-89.5597,America/Chicago,"Cape Girardeau, MO"
Hollister,CA,36.8555,-121.3986,America/Los_Angeles,"Hollister, CA"
Spanish Fork,UT,40.1101,-111.6405,America/Denver,"Spanish Fork, UT"
Montclair,CA,34.0715,-117.6981,America/Los_Angeles,"Montclair, CA"
Streamwood,IL,42.0209,-88.1779,America/Chicago,"Streamwood, IL"
Marion,IA,42.0451,-91.585,America/Chicago,"Marion, IA"
Friendswood,TX,29.5110,-95.1981,America/Chicago,"Friendswood, TX"
Chelsea,MA,42.3959,-71.0325,America/New_York,"Chelsea, MA"
The Acreage,FL,26.7740,-80.2779,America/New_York,"The Acreage, FL"
Calexico,CA,32.6849,-115.4944,America/Tijuana,"Calexico, CA"
Vineyard,CA,38.4740,-121.324,America/Los_Angeles,"Vineyard, CA"
New Berlin,WI,42.9726,-88.1291,America/Chicago,"New Berlin, WI"
Hallandale Beach,FL,25.9854,-80.1423,America/New_York,"Hallandale Beach, FL"
La Puente,CA,34.0323,-117.9533,America/Los_Angeles,"La Puente, CA"
Crystal Lake,IL,42.2333,-88.3351,America/Chicago,"Crystal Lake, IL"
Marlborough,MA,42.3494,-71.5468,America/New_York,"Marlborough, MA"
Romeoville,IL,41.6318,-88.0997,America/Chicago,"Romeoville, IL"
Indian Trail,NC,35.0699,-80.6452,America/New_York,"Indian Trail, NC"
Royal Palm Beach,FL,26.7038,-80.2241,America/New_York,"Royal Palm Beach, FL"
Columbia,TN,35.6238,-87.0484,America/Chicago,"Columbia, TN"
Lake Oswego,OR,45.4129,-122.7004,America/Los_Angeles,"Lake Oswego, OR"
Carol Stream,IL,41.9181,-88.1307,America/Chicago,"Carol Stream, IL"
Los Banos,CA,37.0630,-120.8406,America/Los_Angeles,"Los Banos, CA"
Plant City,FL,28.0140,-82.1201,America/New_York,"Plant City, FL"
Meadow Woods,FL,28.3698,-81.3467,America/New_York,"Meadow Woods, FL"
Keizer,OR,45.0028,-123.0243,America/Los_Angeles,"Keizer, OR"
Annapolis,MD,38.9706,-76.5047,America/New_York,"Annapolis, MD"
Essex,MD,39.3021,-76.4449,America/New_York,"Essex, MD"
Lancaster,TX,32.5922,-96.7739,America/Chicago,"Lancaster, TX"
Milton,GA,34.1353,-84.3139,America/New_York,"Milton, GA"
Roy,UT,41.1714,-112.0485,America/Denver,"Roy, UT"
Northglenn,CO,39.9108,-104.9783,America/Denver,"Northglenn, CO"
Germantown,TN,35.0829,-89.7824,America/Chicago,"Germantown, TN"
South Valley,NM,35.0093,-106.6819,America/Denver,"South Valley, NM"
Duncanville,TX,32.6460,-96.9127,America/Chicago,"Duncanville, TX"
French Valley,CA,33.5999,-117.1069,America/Los_Angeles,"French Valley, CA"
Warren,OH,41.2390,-80.8174,America/New_York,"Warren, OH"
Culver City,CA,34.0058,-118.3968,America/Los_Angeles,"Culver City, CA"
Sun City,AZ,33.6165,-112.2819,America/Phoenix,"Sun City, AZ"
Hurst,TX,32.8353,-97.1809,America/Chicago,"Hurst, TX"
Land O' Lakes,FL,28.2075,-82.4476,America/New_York,"Land O' Lakes, FL"
Severna Park,MD,39.0870,-76.5687,America/New_York,"Severna Park, MD"
Issaquah,WA,47.5439,-122.0471,America/Los_Angeles,"Issaquah, WA"
Clovis,NM,34.4376,-103.1923,America/Denver,"Clovis, NM"
Hot Springs,AR,34.4892,-93.0501,America/Chicago,"Hot Springs, AR"
Mission Bend,TX,29.6948,-95.6658,America/Chicago,"Mission Bend, TX"
Wheeling,IL,42.1308,-87.924,America/Chicago,"Wheeling, IL"
Pacifica,CA,37.6113,-122.4782,America/Los_Angeles,"Pacifica, CA"
Security-Widefield,CO,38.7489,-104.7142,America/Denver,"Security-Widefield, CO"
Brookfield,WI,43.0640,-88.1231,America/Chicago,"Brookfield, WI"
Lynnwood,WA,47.8284,-122.3033,America/Los_Angeles,"Lynnwood, WA"
Mooresville,NC,35.5847,-80.8266,America/New_York,"Mooresville, NC"
Hobbs,NM,32.7281,-103.16,America/Denver,"Hobbs, NM"
Pleasant Grove,UT,40.3716,-111.7412,America/Denver,"Pleasant Grove, UT"
Evans,GA,33.5619,-82.1351,America/New_York,"Evans, GA"
Martinez,CA,37.9985,-122.1161,America/Los_Angeles,"Martinez, CA"
Pahrump,NV,36.2235,-115.9974,America/Los_Angeles,"Pahrump, NV"
Brighton,CO,39.9716,-104.7963,America/Denver,"Brighton, CO"
Stanton,CA,33.8003,-117.9935,America/Los_Angeles,"Stanton, CA"
Waipahu,HI,21.3859,-158.0101,Pacific/Honolulu,"Waipahu, HI"
Olive Branch,MS,34.9610,-89.8469,America/Chicago,"Olive Branch, MS"
Tupelo,MS,34.2692,-88.7318,America/Chicago,"Tupelo, MS"
Kendall West,FL,25.7065,-80.4388,America/New_York,"Kendall West, FL"
Reynoldsburg,OH,39.9588,-82.7943,America/New_York,"Reynoldsburg, OH"
East Meadow,NY,40.7197,-73.5604,America/New_York,"East Meadow, NY"
Parkland,WA,47.1417,-122.4376,America/Los_Angeles,"Parkland, WA"
Grants Pass,OR,42.4333,-123.3317,America/Los_Angeles,"Grants Pass, OR"
Fort Lee,NJ,40.8509,-73.9713,America/New_York,"Fort Lee, NJ"
Rosenberg,TX,29.5456,-95.8223,America/Chicago,"Rosenberg, TX"
Hanover Park,IL,41.9818,-88.1446,America/Chicago,"Hanover Park, IL"
Egypt Lake-Leto,FL,28.0177,-82.5062,America/New_York,"Egypt Lake-Leto, FL"
Clinton,MD,38.7499,-76.9063,America/New_York,"Clinton, MD"
Rock Island,IL,41.4699,-90.5827,America/Chicago,"Rock Island, IL"
Monrovia,CA,34.1650,-117.9921,America/Los_Angeles,"Monrovia, CA"
Carpentersville,IL,42.1227,-88.2896,America/Chicago,"Carpentersville, IL"
Menomonee Falls,WI,43.1487,-88.1227,America/Chicago,"Menomonee Falls, WI"
Valley Stream,NY,40.6647,-73.7043,America/New_York,"Valley Stream, NY"
Park Ridge,IL,42.0125,-87.8436,America/Chicago,"Park Ridge, IL"
La Presa,CA,32.7110,-117.0027,America/Los_Angeles,"La Presa, CA"
Muskogee,OK,35.7432,-95.3567,America/Chicago,"Muskogee, OK"
Meridian,MS,32.3846,-88.6896,America/Chicago,"Meridian, MS"
Aventura,FL,25.9566,-80.1371,America/New_York,"Aventura, FL"
Mechanicsville,VA,37.6263,-77.3561,America/New_York,"Mechanicsville, VA"
Richmond West,FL,25.6105,-80.4297,America/New_York,"Richmond West, FL"
Cottage Grove,MN,44.8161,-92.9274,America/Chicago,"Cottage Grove, MN"
Greenfield,WI,42.9619,-88.0052,America/Chicago,"Greenfield, WI"
Oregon City,OR,45.3418,-122.5924,America/Los_Angeles,"Oregon City, OR"
Hilliard,OH,40.0353,-83.1578,America/New_York,"Hilliard, OH"
Commack,NY,40.8435,-73.2833,America/New_York,"Commack, NY"
Winter Springs,FL,28.6889,-81.2703,America/New_York,"Winter Springs, FL"
Beloit,WI,42.5230,-89.0184,America/Chicago,"Beloit, WI"
San Juan,TX,26.1903,-98.152,America/Chicago,"San Juan, TX"
Clermont,FL,28.5325,-81.7208,America/New_York,"Clermont, FL"
Waxahachie,TX,32.4035,-96.8446,America/Chicago,"Waxahachie, TX"
New Albany,IN,38.3090,-85.8234,America/Kentucky/Louisville,"New Albany, IN"
Addison,IL,41.9313,-88.0085,America/Chicago,"Addison, IL"
Prattville,AL,32.4597,-86.4573,America/Chicago,"Prattville, AL"
Holly Springs,NC,35.6526,-78.8399,America/New_York,"Holly Springs, NC"
Lincoln Park,MI,42.2432,-83.1811,America/Detroit,"Lincoln Park, MI"
Portage,IN,41.5856,-87.1797,America/Chicago,"Portage, IN"
Bartlesville,OK,36.7365,-95.9456,America/Chicago,"Bartlesville, OK"
Dunedin,FL,28.0329,-82.7862,America/New_York,"Dunedin, FL"
Oakton,VA,38.8887,-77.3016,America/New_York,"Oakton, VA"
Phenix City,AL,32.4585,-85.0253,America/Chicago,"Phenix City, AL"
Kearns,UT,40.6519,-112.0095,America/Denver,"Kearns, UT"
Moorpark,CA,34.2861,-118.8768,America/Los_Angeles,"Moorpark, CA"
West Fargo,ND,46.8573,-96.9057,America/Chicago,"West Fargo, ND"
Owasso,OK,36.2878,-95.8311,America/Chicago,"Owasso, OK"
Benton,AR,34.5776,-92.5713,America/Chicago,"Benton, AR"
Oak Creek,WI,42.8803,-87.9009,America/Chicago,"Oak Creek, WI"
Winchester,NV,36.1365,-115.137,America/Los_Angeles,"Winchester, NV"
Tucker,GA,33.8436,-84.2024,America/New_York,"Tucker, GA"
Richfield,MN,44.8763,-93.2829,America/Chicago,"Richfield, MN"
Elmont,NY,40.7033,-73.7078,America/New_York,"Elmont, NY"
Calumet City,IL,41.6134,-87.5505,America/Chicago,"Calumet City, IL"
Bettendorf,IA,41.5657,-90.4765,America/Chicago,"Bettendorf, IA"
Lewiston,ME,44.0915,-70.1681,America/New_York,"Lewiston, ME"
Roseville,MN,45.0155,-93.1545,America/Chicago,"Roseville, MN"
Leavenworth,KS,39.3239,-94.924,America/Chicago,"Leavenworth, KS"
Oakville,MO,38.4479,-90.3199,America/Chicago,"Oakville, MO"
Wildomar,CA,33.6173,-117.2582,America/Los_Angeles,"Wildomar, CA"
Lauderdale Lakes,FL,26.1682,-80.2017,America/New_York,"Lauderdale Lakes, FL"
Franklin,WI,42.8854,-88.0104,America/Chicago,"Franklin, WI"
Marion,OH,40.5973,-83.1227,America/New_York,"Marion, OH"
San Juan Capistrano,CA,33.5008,-117.6544,America/Los_Angeles,"San Juan Capistrano, CA"
Peachtree City,GA,33.3942,-84.571,America/New_York,"Peachtree City, GA"
Mount Juliet,TN,36.1990,-86.5115,America/Chicago,"Mount Juliet, TN"
Del Rio,TX,29.3708,-100.8801,America/Chicago,"Del Rio, TX"
Watertown Town,MA,42.3700,-71.1774,America/New_York,"Watertown Town, MA"
Richmond,KY,37.7307,-84.2925,America/New_York,"Richmond, KY"
Cooper City,FL,26.0463,-80.2862,America/New_York,"Cooper City, FL"
Foothill Farms,CA,38.6867,-121.3475,America/Los_Angeles,"Foothill Farms, CA"
El Mirage,AZ,33.5905,-112.3271,America/Phoenix,"El Mirage, AZ"
Temple City,CA,34.1022,-118.0579,America/Los_Angeles,"Temple City, CA"
South Miami Heights,FL,25.5886,-80.3862,America/New_York,"South Miami Heights, FL"
Randallstown,MD,39.3723,-76.8024,America/New_York,"Randallstown, MD"
Claremont,CA,34.1259,-117.7153,America/Los_Angeles,"Claremont, CA"
Princeton,FL,25.5396,-80.3971,America/New_York,"Princeton, FL"
La Vergne,TN,36.0200,-86.5586,America/Chicago,"La Vergne, TN"
Oildale,CA,35.4293,-119.0306,America/Los_Angeles,"Oildale, CA"
West Hollywood,CA,34.0883,-118.3719,America/Los_Angeles,"West Hollywood, CA"
Inver Grove Heights,MN,44.8247,-93.0596,America/Chicago,"Inver Grove Heights, MN"
Wildwood,MO,38.5800,-90.6698,America/Chicago,"Wildwood, MO"
Oswego,IL,41.6834,-88.3372,America/Chicago,"Oswego, IL"
Richmond,IN,39.8318,-84.8905,America/Indiana/Indianapolis,"Richmond, IN"
Gahanna,OH,40.0251,-82.8637,America/New_York,"Gahanna, OH"
Eagle Mountain,UT,40.3137,-112.0114,America/Denver,"Eagle Mountain, UT"
Upper Arlington,OH,40.0272,-83.0704,America/New_York,"Upper Arlington, OH"
Carrollwood,FL,28.0577,-82.5148,America/New_York,"Carrollwood, FL"
Olney,MD,39.1465,-77.0715,America/New_York,"Olney, MD"
La Porte,TX,29.6689,-95.0484,America/Chicago,"La Porte, TX"
Monroe,NC,35.0063,-80.5596,America/New_York,"Monroe, NC"
Lufkin,TX,31.3217,-94.7277,America/Chicago,"Lufkin, TX"
Tooele,UT,40.5393,-112.3082,America/Denver,"Tooele, UT"
Bell,CA,33.9801,-118.1798,America/Los_Angeles,"Bell, CA"
Gadsden,AL,34.0086,-86.0157,America/Chicago,"Gadsden, AL"
Menlo Park,CA,37.4685,-122.1673,America/Los_Angeles,"Menlo Park, CA"
Westmont,CA,33.9417,-118.3018,America/Los_Angeles,"Westmont, CA"
Buenaventura Lakes,FL,28.3349,-81.3539,America/New_York,"Buenaventura Lakes, FL"
Manhattan Beach,CA,33.8894,-118.3967,America/Los_Angeles,"Manhattan Beach, CA"
East Point,GA,33.6696,-84.4701,America/New_York,"East Point, GA"
Orangevale,CA,38.6881,-121.2209,America/Los_Angeles,"Orangevale, CA"
Riviera Beach,FL,26.7813,-80.0741,America/New_York,"Riviera Beach, FL"
Post Falls,ID,47.7213,-116.9384,America/Los_Angeles,"Post Falls, ID"
Martinez,GA,33.5209,-82.0985,America/New_York,"Martinez, GA"
Pleasant Hill,CA,37.9539,-122.0759,America/Los_Angeles,"Pleasant Hill, CA"
Brunswick,OH,41.2465,-81.8198,America/New_York,"Brunswick, OH"
Merrillville,IN,41.4728,-87.3196,America/Chicago,"Merrillville, IN"
Redan,GA,33.7394,-84.1644,America/New_York,"Redan, GA"
Englewood,CO,39.6468,-104.9942,America/Denver,"Englewood, CO"
Stow,OH,41.1765,-81.4344,America/New_York,"Stow, OH"
Lebanon,TN,36.2040,-86.3481,America/Chicago,"Lebanon, TN"
Owings Mills,MD,39.4115,-76.7913,America/New_York,"Owings Mills, MD"
Leawood,KS,38.9075,-94.6258,America/Chicago,"Leawood, KS"
Dakota Ridge,CO,39.6192,-105.1344,America/Denver,"Dakota Ridge, CO"
Goldsboro,NC,35.3778,-77.9717,America/New_York,"Goldsboro, NC"
Goshen,IN,41.5743,-85.8309,America/Indiana/Indianapolis,"Goshen, IN"
Vestavia Hills,AL,33.4518,-86.7437,America/Chicago,"Vestavia Hills, AL"
McMinnville,OR,45.2110,-123.1918,America/Los_Angeles,"McMinnville, OR"
Fair Oaks,VA,38.8653,-77.3586,America/New_York,"Fair Oaks, VA"
Montgomery Village,MD,39.1788,-77.1954,America/New_York,"Montgomery Village, MD"
Norristown,PA,40.1225,-75.3398,America/New_York,"Norristown, PA"
Georgetown,KY,38.2247,-84.5487,America/New_York,"Georgetown, KY"
University City,MO,38.6657,-90.3315,America/Chicago,"University City, MO"
Socorro,TX,31.6383,-106.2601,America/Denver,"Socorro, TX"
Butte,MT,45.9020,-112.6571,America/Denver,"Butte, MT"
Torrington,CT,41.8349,-73.1282,America/New_York,"Torrington, CT"
Adelanto,CA,34.5814,-117.4397,America/Los_Angeles,"Adelanto, CA"
Kennesaw,GA,34.0260,-84.6177,America/New_York,"Kennesaw, GA"
Chillum,MD,38.9666,-76.9791,America/New_York,"Chillum, MD"
Plainfield,IN,39.6954,-86.3716,America/Indiana/Indianapolis,"Plainfield, IN"
New City,NY,41.1542,-73.9912,America/New_York,"New City, NY"
Merritt Island,FL,28.3139,-80.6708,America/New_York,"Merritt Island, FL"
Pullman,WA,46.7336,-117.168,America/Los_Angeles,"Pullman, WA"
Salisbury,NC,35.6658,-80.4905,America/New_York,"Salisbury, NC"
North Ridgeville,OH,41.3852,-82.0195,America/New_York,"North Ridgeville, OH"
Sun Prairie,WI,43.1825,-89.2362,America/Chicago,"Sun Prairie, WI"
Cookeville,TN,36.1482,-85.5109,America/Chicago,"Cookeville, TN"
San Luis,AZ,32.4911,-114.7089,America/Phoenix,"San Luis, AZ"
Cottonwood Heights,UT,40.6137,-111.8144,America/Denver,"Cottonwood Heights, UT"
Glendale Heights,IL,41.9196,-88.0785,America/Chicago,"Glendale Heights, IL"
Chester,PA,39.8456,-75.3718,America/New_York,"Chester, PA"
Golden Glades,FL,25.9129,-80.2013,America/New_York,"Golden Glades, FL"
Newark,DE,39.6776,-75.7576,America/New_York,"Newark, DE"
Ken Caryl,CO,39.5770,-105.1144,America/Denver,"Ken Caryl, CO"
San Dimas,CA,34.1082,-117.809,America/Los_Angeles,"San Dimas, CA"
Kearney,NE,40.7011,-99.0833,America/Chicago,"Kearney, NE"
Dana Point,CA,33.4733,-117.6967,America/Los_Angeles,"Dana Point, CA"
Spanaway,WA,47.0979,-122.4233,America/Los_Angeles,"Spanaway, WA"
Beverly Hills,CA,34.0786,-118.4021,America/Los_Angeles,"Beverly Hills, CA"
Midvale,UT,40.6148,-111.8927,America/Denver,"Midvale, UT"
Valparaiso,IN,41.4783,-87.0506,America/Chicago,"Valparaiso, IN"
University Place,WA,47.2147,-122.5461,America/Los_Angeles,"University Place, WA"
DeLand,FL,29.0225,-81.2875,America/New_York,"DeLand, FL"
Huntington Station,NY,40.8446,-73.405,America/New_York,"Huntington Station, NY"
Deer Park,TX,29.6898,-95.1151,America/Chicago,"Deer Park, TX"
Mason,OH,39.3571,-84.3023,America/New_York,"Mason, OH"
Central Islip,NY,40.7836,-73.1945,America/New_York,"Central Islip, NY"
Kaneohe,HI,21.4062,-157.7904,Pacific/Honolulu,"Kaneohe, HI"
Long Beach,NY,40.5887,-73.666,America/New_York,"Long Beach, NY"
Lake Stevens,WA,48.0024,-122.0953,America/Los_Angeles,"Lake Stevens, WA"
Fairborn,OH,39.8010,-84.0094,America/New_York,"Fairborn, OH"
Estero,FL,26.4276,-81.7951,America/New_York,"Estero, FL"
Woodridge,IL,41.7370,-88.0409,America/Chicago,"Woodridge, IL"
Cedar City,UT,37.6834,-113.0956,America/Denver,"Cedar City, UT"
Alabaster,AL,33.2198,-86.8225,America/Chicago,"Alabaster, AL"
Hinesville,GA,31.8248,-81.6137,America/New_York,"Hinesville, GA"
Springville,UT,40.1638,-111.6205,America/Denver,"Springville, UT"
Prairieville,LA,30.3151,-90.9571,America/Chicago,"Prairieville, LA"
Northbrook,IL,42.1292,-87.8352,America/Chicago,"Northbrook, IL"
Foster City,CA,37.5553,-122.2659,America/Los_Angeles,"Foster City, CA"
Fruit Cove,FL,30.0972,-81.6175,America/New_York,"Fruit Cove, FL"
Douglasville,GA,33.7384,-84.7054,America/New_York,"Douglasville, GA"
Andover,MN,45.2571,-93.3265,America/Chicago,"Andover, MN"
Fair Lawn,NJ,40.9359,-74.1177,America/New_York,"Fair Lawn, NJ"
Copperas Cove,TX,31.1192,-97.914,America/Chicago,"Copperas Cove, TX"
Springfield,VA,38.7810,-77.1839,America/New_York,"Springfield, VA"
Walla Walla,WA,46.0671,-118.3368,America/Los_Angeles,"Walla Walla, WA"
Baldwin,NY,40.6511,-73.6075,America/New_York,"Baldwin, NY"
Nacogdoches,TX,31.6134,-94.6528,America/Chicago,"Nacogdoches, TX"
Parkland,FL,26.3219,-80.2533,America/New_York,"Parkland, FL"
Pikesville,MD,39.3893,-76.702,America/New_York,"Pikesville, MD"
Lewiston,ID,46.3934,-116.9933,America/Los_Angeles,"Lewiston, ID"
Pueblo West,CO,38.3465,-104.7246,America/Denver,"Pueblo West, CO"
Pekin,IL,40.5678,-89.6251,America/Chicago,"Pekin, IL"
Florence,KY,38.9899,-84.6471,America/New_York,"Florence, KY"
Matthews,NC,35.1195,-80.7101,America/New_York,"Matthews, NC"
Helena,MT,46.5965,-112.0202,America/Denver,"Helena, MT"
Uniondale,NY,40.7176,-73.5947,America/New_York,"Uniondale, NY"
St. Charles,IL,41.9193,-88.3109,America/Chicago,"St. Charles, IL"
Manitowoc,WI,44.0991,-87.6812,America/Chicago,"Manitowoc, WI"
Lawndale,CA,33.8884,-118.3531,America/Los_Angeles,"Lawndale, CA"
South Riding,VA,38.9120,-77.5132,America/New_York,"South Riding, VA"
Laramie,WY,41.3099,-105.6085,America/Denver,"Laramie, WY"
Gillette,WY,44.2752,-105.4982,America/Denver,"Gillette, WY"
Graham,WA,47.0322,-122.2827,America/Los_Angeles,"Graham, WA"
Massillon,OH,40.7838,-81.5254,America/New_York,"Massillon, OH"
Elk Grove Village,IL,42.0064,-87.9921,America/Chicago,"Elk Grove Village, IL"
East Lake,FL,28.1206,-82.6868,America/New_York,"East Lake, FL"
Fallbrook,CA,33.3693,-117.2259,America/Los_Angeles,"Fallbrook, CA"
La Verne,CA,34.1207,-117.7703,America/Los_Angeles,"La Verne, CA"
Woodstock,GA,34.1026,-84.5091,America/New_York,"Woodstock, GA"
Bethel Park,PA,40.3238,-80.0364,America/New_York,"Bethel Park, PA"
Spring Valley,NY,41.1151,-74.0486,America/New_York,"Spring Valley, NY"
West Little River,FL,25.8571,-80.2367,America/New_York,"West Little River, FL"
Greer,SC,34.9330,-82.2313,America/New_York,"Greer, SC"
College Park,MD,38.9960,-76.9337,America/New_York,"College Park, MD"
Eastpointe,MI,42.4657,-82.9461,America/Detroit,"Eastpointe, MI"
Rome,NY,43.2260,-75.4909,America/New_York,"Rome, NY"
Lake Magdalene,FL,28.0875,-82.4791,America/New_York,"Lake Magdalene, FL"
Westlake,OH,41.4524,-81.9294,America/New_York,"Westlake, OH"
Goleta,CA,34.4361,-119.8594,America/Los_Angeles,"Goleta, CA"
Dania Beach,FL,26.0593,-80.1637,America/New_York,"Dania Beach, FL"
Statesboro,GA,32.4375,-81.7751,America/New_York,"Statesboro, GA"
Weatherford,TX,32.7536,-97.7723,America/Chicago,"Weatherford, TX"
Juneau,AK,58.4546,-134.1739,America/Juneau,"Juneau, AK"
Bangor,ME,44.8323,-68.7906,America/New_York,"Bangor, ME"
Ferry Pass,FL,30.5205,-87.1899,America/Chicago,"Ferry Pass, FL"
Des Moines,WA,47.3914,-122.3156,America/Los_Angeles,"Des Moines, WA"
Kaysville,UT,41.0290,-111.9456,America/Denver,"Kaysville, UT"
Los Gatos,CA,37.2304,-121.9562,America/Los_Angeles,"Los Gatos, CA"
Wheat Ridge,CO,39.7728,-105.1028,America/Denver,"Wheat Ridge, CO"
Spring Valley,CA,32.7317,-116.9766,America/Los_Angeles,"Spring Valley, CA"
Bay Shore,NY,40.7288,-73.2495,America/New_York,"Bay Shore, NY"
Liberty,MO,39.2394,-94.4191,America/Chicago,"Liberty, MO"
Savage,MN,44.7545,-93.3632,America/Chicago,"Savage, MN"
Marrero,LA,29.8871,-90.1126,America/Chicago,"Marrero, LA"
Garfield,NJ,40.8791,-74.1085,America/New_York,"Garfield, NJ"
Southlake,TX,32.9545,-97.1503,America/Chicago,"Southlake, TX"
Harker Heights,TX,31.0572,-97.6446,America/Chicago,"Harker Heights, TX"
Bowling Green,OH,41.3776,-83.6495,America/New_York,"Bowling Green, OH"
American Fork,UT,40.3783,-111.7953,America/Denver,"American Fork, UT"
Alamogordo,NM,32.8837,-105.9625,America/Denver,"Alamogordo, NM"
Clearfield,UT,41.1030,-112.0238,America/Denver,"Clearfield, UT"
Laguna Hills,CA,33.5918,-117.6991,America/Los_Angeles,"Laguna Hills, CA"
Mundelein,IL,42.2693,-88.0102,America/Chicago,"Mundelein, IL"
North Olmsted,OH,41.4149,-81.919,America/New_York,"North Olmsted, OH"
Franklin Square,NY,40.7002,-73.6775,America/New_York,"Franklin Square, NY"
Midlothian,TX,32.4669,-96.989,America/Chicago,"Midlothian, TX"
Aiken,SC,33.5303,-81.7271,America/New_York,"Aiken, SC"
Shawnee,OK,35.3531,-96.9647,America/Chicago,"Shawnee, OK"
Redmond,OR,44.2612,-121.181,America/Los_Angeles,"Redmond, OR"
Orcutt,CA,34.8691,-120.4222,America/Los_Angeles,"Orcutt, CA"
Rochester,NH,43.2990,-70.9787,America/New_York,"Rochester, NH"
Saratoga Springs,UT,40.3450,-111.9154,America/Denver,"Saratoga Springs, UT"
West Falls Church,VA,38.8648,-77.1878,America/New_York,"West Falls Church, VA"
Sherwood,AR,34.8507,-92.2029,America/Chicago,"Sherwood, AR"
Naugatuck,CT,41.4890,-73.0518,America/New_York,"Naugatuck, CT"
Princeton,NJ,40.3562,-74.6693,America/New_York,"Princeton, NJ"
Centereach,NY,40.8681,-73.0821,America/New_York,"Centereach, NY"
Saratoga,CA,37.2684,-122.0263,America/Los_Angeles,"Saratoga, CA"
Lakeside,FL,30.1356,-81.7674,America/New_York,"Lakeside, FL"
Hopkinsville,KY,36.8381,-87.4775,America/Chicago,"Hopkinsville, KY"
Miami Lakes,FL,25.9125,-80.3214,America/New_York,"Miami Lakes, FL"
Danville,IL,40.1426,-87.6111,America/Chicago,"Danville, IL"
San Pablo,CA,37.9629,-122.3426,America/Los_Angeles,"San Pablo, CA"
Fair Oaks,CA,38.6504,-121.2496,America/Los_Angeles,"Fair Oaks, CA"
Los Altos,CA,37.3684,-122.0965,America/Los_Angeles,"Los Altos, CA"
Sterling,VA,39.0052,-77.405,America/New_York,"Sterling, VA"
Algonquin,IL,42.1629,-88.3159,America/Chicago,"Algonquin, IL"
Cleburne,TX,32.3568,-97.4151,America/Chicago,"Cleburne, TX"
Petersburg,VA,37.2043,-77.3913,America/New_York,"Petersburg, VA"
Drexel Heights,AZ,32.1453,-111.048,America/Phoenix,"Drexel Heights, AZ"
Winter Park,FL,28.5989,-81.3442,America/New_York,"Winter Park, FL"
Brooklyn Center,MN,45.0681,-93.3162,America/Chicago,"Brooklyn Center, MN"
Ithaca,NY,42.4442,-76.5032,America/New_York,"Ithaca, NY"
Sahuarita,AZ,31.9323,-110.9654,America/Phoenix,"Sahuarita, AZ"
Bel Air North,MD,39.5543,-76.3732,America/New_York,"Bel Air North, MD"
Opelika,AL,32.6612,-85.3769,America/Chicago,"Opelika, AL"
Fleming Island,FL,30.0988,-81.7124,America/New_York,"Fleming Island, FL"
Nicholasville,KY,37.8906,-84.5668,America/New_York,"Nicholasville, KY"
Gurnee,IL,42.3708,-87.9392,America/Chicago,"Gurnee, IL"
Granger,IN,41.7374,-86.1348,America/Indiana/Indianapolis,"Granger, IN"
LaGrange,GA,33.0274,-85.0384,America/New_York,"LaGrange, GA"
Holladay,UT,40.6600,-111.8226,America/Denver,"Holladay, UT"
Parkville,MD,39.3832,-76.5519,America/New_York,"Parkville, MD"
Atascadero,CA,35.4827,-120.6858,America/Los_Angeles,"Atascadero, CA"
Kingman,AZ,35.2170,-114.0105,America/Phoenix,"Kingman, AZ"
Long Branch,NJ,40.2965,-73.9915,America/New_York,"Long Branch, NJ"
Galesburg,IL,40.9506,-90.3763,America/Chicago,"Galesburg, IL"
Golden Gate,FL,26.1844,-81.7031,America/New_York,"Golden Gate, FL"
Crown Point,IN,41.4143,-87.3457,America/Chicago,"Crown Point, IN"
Syracuse,UT,41.0859,-112.0698,America/Denver,"Syracuse, UT"
Milford Mill,MD,39.3444,-76.7668,America/New_York,"Milford Mill, MD"
Garner,NC,35.6936,-78.6181,America/New_York,"Garner, NC"
North Tonawanda,NY,43.0457,-78.8659,America/New_York,"North Tonawanda, NY"
Atwater,CA,37.3529,-120.5959,America/Los_Angeles,"Atwater, CA"
Cibolo,TX,29.5634,-98.2115,America/Chicago,"Cibolo, TX"
Santa Paula,CA,34.3545,-119.0656,America/Los_Angeles,"Santa Paula, CA"
Gloucester,MA,42.6260,-70.6897,America/New_York,"Gloucester, MA"
Banning,CA,33.9460,-116.8992,America/Los_Angeles,"Banning, CA"
Fountain,CO,38.6886,-104.6829,America/Denver,"Fountain, CO"
North Royalton,OH,41.3138,-81.745,America/New_York,"North Royalton, OH"
Ballwin,MO,38.5950,-90.55,America/Chicago,"Ballwin, MO"
Lawrenceville,GA,33.9523,-83.9932,America/New_York,"Lawrenceville, GA"
San Lorenzo,CA,37.6733,-122.1332,America/Los_Angeles,"San Lorenzo, CA"
Burlingame,CA,37.5859,-122.3667,America/Los_Angeles,"Burlingame, CA"
Fitchburg,WI,42.9859,-89.4255,America/Chicago,"Fitchburg, WI"
Madison Heights,MI,42.5073,-83.1034,America/Detroit,"Madison Heights, MI"
Kahului,HI,20.8715,-156.4603,Pacific/Honolulu,"Kahului, HI"
New Bern,NC,35.0955,-77.0723,America/New_York,"New Bern, NC"
North Chicago,IL,42.3172,-87.8595,America/Chicago,"North Chicago, IL"
Morristown,TN,36.2043,-83.3001,America/New_York,"Morristown, TN"
East Niles,CA,35.3683,-118.9225,America/Los_Angeles,"East Niles, CA"
Chamblee,GA,33.8842,-84.3007,America/New_York,"Chamblee, GA"
Texarkana,AR,33.4360,-93.9959,America/Chicago,"Texarkana, AR"
Greenville,MS,33.3850,-91.0514,America/Chicago,"Greenville, MS"
Oceanside,NY,40.6328,-73.6364,America/New_York,"Oceanside, NY"
Cornelius,NC,35.4724,-80.8813,America/New_York,"Cornelius, NC"
Eastern Goleta Valley,CA,34.4448,-119.7879,America/Los_Angeles,"Eastern Goleta Valley, CA"
Walnut,CA,34.0334,-117.8593,America/Los_Angeles,"Walnut, CA"
Sanford,NC,35.4875,-79.177,America/New_York,"Sanford, NC"
East Lake-Orient Park,FL,27.9970,-82.3653,America/New_York,"East Lake-Orient Park, FL"
Kent,OH,41.1490,-81.361,America/New_York,"Kent, OH"
Rahway,NJ,40.6077,-74.2807,America/New_York,"Rahway, NJ"
Westfield,NJ,40.6516,-74.3432,America/New_York,"Westfield, NJ"
Middle River,MD,39.3436,-76.4253,America/New_York,"Middle River, MD"
San Carlos,CA,37.4982,-122.2677,America/Los_Angeles,"San Carlos, CA"
Carney,MD,39.4050,-76.5235,America/New_York,"Carney, MD"
Chicago Heights,IL,41.5100,-87.6345,America/Chicago,"Chicago Heights, IL"
Highland Park,IL,42.1823,-87.8104,America/Chicago,"Highland Park, IL"
Duluth,GA,34.0053,-84.1492,America/New_York,"Duluth, GA"
O'Fallon,IL,38.5974,-89.9148,America/Chicago,"O'Fallon, IL"
Crofton,MD,39.0144,-76.68,America/New_York,"Crofton, MD"
Austintown,OH,41.0932,-80.7405,America/New_York,"Austintown, OH"
Canton,GA,34.2467,-84.4897,America/New_York,"Canton, GA"
Suisun City,CA,38.2473,-122.0091,America/Los_Angeles,"Suisun City, CA"
